Date,Country,City,State,Shape,Summary,lat,lon
16-12-21-19-15,USA,Waynesboro,VA,Sphere,REDACTED,38.0652286,-78.90588756
16-12-21-00-00,USA,Louisville,KY,Unknown,REDACTED,38.2542376,-85.7594069
16-12-20-22-30,USA,Santa Rosa,CA,Sphere,REDACTED,38.4404675,-122.7144313
16-12-20-19-00,USA,Fresno,CA,Circle,REDACTED,36.7295295,-119.7088612
16-12-19-21-53,USA,Reymert,AZ,Circle,REDACTED,33.2297793,-111.2092898
16-12-19-21-50,USA,Redding,CA,Light,REDACTED,40.5863563,-122.3916753
16-12-19-20-02,USA,Gilbert,AZ,Light,REDACTED,33.294207,-111.7379465
16-12-19-19-02,USA,Phoenix,AZ,Circle,REDACTED,33.4485866,-112.0773455
16-12-19-18-30,USA,Huber Heights,OH,Cylinder,REDACTED,39.85902405,-84.11136285
16-12-19-18-00,USA,Conway,AR,Chevron,REDACTED,35.0886963,-92.442101
16-12-19-10-30,USA,Anchorage,AK,Circle,REDACTED,61.2163129,-149.8948522
16-12-19-06-50,USA,Town and Country,MO,Light,REDACTED,38.6122751,-90.4634531
16-12-19-03-30,USA,Salt Lake City,UT,Triangle,REDACTED,40.7670126,-111.8904307
16-12-19-01-27,USA,Richardson,TX,Triangle,REDACTED,32.9481789,-96.7297205
16-12-18-22-00,CANADA,Wetaskiwin,AB,Light,REDACTED,52.968492,-113.3679199
16-12-18-21-50,USA,Berryville,AR,Formation,REDACTED,36.364792,-93.5679666
16-12-18-21-15,USA,Honolulu,HI,Light,REDACTED,21.304547,-157.8556763
16-12-18-21-00,USA,St. George,UT,Chevron,REDACTED,37.104153,-113.5841312
16-12-18-20-40,USA,Bend,OR,Other,REDACTED,44.0581728,-121.3153095
16-12-18-19-30,USA,Mission,KS,Light,REDACTED,39.0277832,-94.6557913
16-12-18-19-00,USA,Lancaster,OH,Light,REDACTED,39.7136754,-82.5993293
16-12-17-21-00,USA,San Pedro,CA,Other,REDACTED,33.7358518,-118.2922933
16-12-17-20-00,USA,Kahana,HI,Fireball,REDACTED,21.5543942,-157.873405
16-12-17-20-00,USA,San Diego,CA,Sphere,REDACTED,32.7174209,-117.1627713
16-12-17-19-53,USA,Waipio,HI,Circle,REDACTED,21.4172766,-157.9986758
16-12-17-19-15,USA,Ojai,CA,Oval,REDACTED,34.4480495,-119.2428889
16-12-17-07-30,USA,Weston,FL,Circle,REDACTED,26.103632,-80.40310188
16-12-17-00-08,USA,Fairfield,CA,Fireball,REDACTED,38.2493581,-122.0399662
16-12-16-23-30,USA,Rio Rancho,NM,Fireball,REDACTED,35.269381,-106.6328189
16-12-16-22-20,USA,Hixson,TN,Other,REDACTED,35.236207,-85.2982059
16-12-16-22-00,USA,Dade City,FL,Circle,REDACTED,28.3647248,-82.1959177
16-12-16-19-30,USA,La Veta,CO,Light,REDACTED,37.5050118,-105.0077746
16-12-16-18-30,USA,Kelso,WA,Other,REDACTED,46.1420334,-122.9060317
16-12-16-18-00,USA,Skiatook,OK,Light,REDACTED,36.3684245,-96.0013846
16-12-16-06-25,USA,Carson City,NV,Unknown,REDACTED,39.1637984,-119.7674033
16-12-15-21-00,USA,Syracuse,NY,Oval,REDACTED,43.0481221,-76.1474243
16-12-15-20-30,USA,Johnson City,TN,Triangle,REDACTED,36.3134398,-82.3534727
16-12-15-20-00,USA,Davie,FL,Egg,REDACTED,26.075729,-80.28410888
16-12-15-19-00,USA,Winchester,KS,Triangle,REDACTED,39.3222209,-95.2669154
16-12-15-19-00,USA,Middlefield,CT,Light,REDACTED,41.717613,-81.2086884
16-12-15-18-00,USA,Corbin,KY,Flash,REDACTED,36.9486986,-84.096876
16-12-15-17-50,USA,Simpsonville,SC,Disk,REDACTED,34.7370639,-82.2542833
16-12-15-17-00,USA,Panama City,FL,Circle,REDACTED,30.165156,-85.6605594
16-12-15-07-12,USA,Chandler,AZ,Unknown,REDACTED,33.3067132,-111.8408488
16-12-15-05-37,USA,Ozark,AL,Unknown,REDACTED,33.547741,-86.5591659
16-12-14-20-15,USA,Cumming,GA,Light,REDACTED,34.2073196,-84.1401925
16-12-14-19-54,USA,North Chesterfield,VA,Formation,REDACTED,38.6560565,-90.5742028
16-12-14-19-21,USA,Dabney,KY,Triangle,REDACTED,37.1839682,-84.5499416
16-12-14-17-00,USA,Clinton,CT,Circle,REDACTED,42.26306,-71.8052219
16-12-14-09-00,USA,San Diego,CA,Oval,REDACTED,32.7174209,-117.1627713
16-12-14-06-00,USA,South Burlington,VT,Light,REDACTED,44.4669941,-73.1709603
16-12-14-05-35,USA,Prescott Valley,AZ,Unknown,REDACTED,34.6100243,-112.3157209
16-12-14-05-00,USA,Monroe Twp,NJ,Unknown,REDACTED,40.3183284,-74.42021822
16-12-14-01-00,USA,Berthoud,CO,Disk,REDACTED,40.3083174,-105.0810923
16-12-13-23-00,USA,Liberty Lake,WA,Triangle,REDACTED,47.6631371,-117.0855724
16-12-13-22-20,USA,Chicago,IL,Light,REDACTED,41.8755546,-87.6244211
16-12-13-22-00,USA,La Jolla,CA,Light,REDACTED,32.8472711,-117.2742085
16-12-13-21-15,USA,Fort Lauderdale,FL,Circle,REDACTED,26.1254381,-80.1381514
16-12-13-21-00,USA,Cedar Rapids,IA,Triangle,REDACTED,41.9758872,-91.6704052
16-12-13-19-00,USA,Panama City,FL,Circle,REDACTED,30.165156,-85.6605594
16-12-13-19-00,USA,Hale,MI,Light,REDACTED,44.3777947,-83.8047086
16-12-13-19-00,USA,Dubuque,IA,Light,REDACTED,42.5006217,-90.6647966
16-12-13-18-30,USA,St. Johns,FL,Chevron,REDACTED,29.9032284,-81.4145467
16-12-13-05-35,USA,West Des Moines,IA,Light,REDACTED,41.5645337,-93.759528
16-12-13-03-37,USA,Pasadena,CA,Unknown,REDACTED,34.1476452,-118.1444778
16-12-12-21-30,USA,Hagerstown,MD,Fireball,REDACTED,39.6419219,-77.720264
16-12-12-20-45,USA,Jacksonville,FL,Light,REDACTED,30.3321838,-81.6556509
16-12-12-19-07,USA,Taos,NM,Light,REDACTED,36.4072485,-105.5730664
16-12-12-19-06,USA,Stevens Pass,WA,Changing,REDACTED,47.7456352,-121.0891717
16-12-12-19-00,USA,Marietta,GA,Light,REDACTED,33.9528472,-84.5496147
16-12-12-18-50,USA,West Collingswood,NJ,Sphere,REDACTED,39.9062242,-75.0929516
16-12-12-18-30,USA,South Lake Tahoe,CA,Light,REDACTED,38.929125,-119.9878464
16-12-12-17-32,USA,Salem,OR,Other,REDACTED,44.9391565,-123.0331209
16-12-12-07-30,USA,Eden Prairie,MN,Light,REDACTED,44.8454356,-93.5297242
16-12-12-06-20,USA,Smithville,MO,Circle,REDACTED,39.3869442,-94.5810658
16-11-12-22-30,USA,Casey,IA,Light,REDACTED,41.5049873,-94.5194148
16-11-12-20-00,USA,St. George,UT,Other,REDACTED,37.104153,-113.5841312
16-11-12-18-00,USA,Fort Collins,CO,Other,REDACTED,40.5508527,-105.0668084
16-11-12-17-45,USA,Helena,MT,Sphere,REDACTED,46.5927122,-112.0361089
16-11-12-16-00,USA,Independence,LA,Light,REDACTED,37.2242358,-95.708313
16-11-12-14-00,USA,Chester,PA,Formation,REDACTED,39.849557,-75.3557457
16-11-12-08-56,USA,Trabuco Canyon,CA,Sphere,REDACTED,33.6626232,-117.5893799
16-11-12-06-15,USA,Gallatin Gateway,MT,Circle,REDACTED,45.5915958,-111.1977303
16-10-12-23-47,USA,Hot Springs,SD,Circle,REDACTED,43.431646,-103.4743629
16-10-12-22-00,USA,Erving,MA,Flash,REDACTED,42.6000863,-72.3981415
16-10-12-21-00,USA,Farragut,TN,Light,REDACTED,35.8845238,-84.153526
16-10-12-21-00,USA,Delta,CO,Fireball,REDACTED,38.8368777,-107.8568293
16-10-12-20-41,USA,Virginia Beach,VA,Cigar,REDACTED,36.8529841,-75.9774182
16-10-12-18-52,USA,Kayenta,AZ,Disk,REDACTED,36.717954,-110.2606012
16-10-12-18-30,USA,Lahaina,HI,Rectangle,REDACTED,20.872684,-156.6762728
16-10-12-18-15,USA,Navajo,NM,Light,REDACTED,35.9040858,-109.0335346
16-10-12-18-00,USA,Santa Fe,NM,Formation,REDACTED,35.6869996,-105.9377996
16-10-12-08-40,USA,Arlington,VA,Oval,REDACTED,38.8903961,-77.0841584
16-10-12-08-37,USA,Hickory,NC,Cone,REDACTED,35.7331895,-81.3412005
16-10-12-07-12,USA,Pearland,TX,Oval,REDACTED,29.5639758,-95.2864298
16-09-12-22-00,USA,Phoenix,AZ,Unknown,REDACTED,33.4485866,-112.0773455
16-09-12-21-50,USA,Portland,OR,Flash,REDACTED,45.5202471,-122.6741948
16-09-12-21-39,USA,Oldsmar,FL,Sphere,REDACTED,28.06906015,-82.6501914
16-09-12-21-30,USA,Kingman,AZ,Triangle,REDACTED,35.189443,-114.0530064
16-09-12-20-30,USA,Fredericksburg,VA,Circle,REDACTED,38.3031837,-77.4605398
16-09-12-19-30,USA,Lancing,TN,Diamond,REDACTED,36.1206306,-84.6538307
16-09-12-19-00,USA,Tewksbury,MA,Triangle,REDACTED,42.6106479,-71.2342247
16-09-12-16-30,USA,Newport,ME,Disk,REDACTED,44.8353424,-69.2739364
16-09-12-05-25,CANADA,Truro,NS,Oval,REDACTED,45.366668,-63.3000059
16-08-12-19-30,USA,Jerseyville,IL,Triangle,REDACTED,39.1200471,-90.3284478
16-08-12-17-30,USA,St. Clair,MO,Light,REDACTED,38.0592942,-93.7945455
16-08-12-17-15,USA,Cromwell,CT,Circle,REDACTED,41.2861336,-72.3557585
16-08-12-16-00,USA,Atlanta,GA,Sphere,REDACTED,33.7490987,-84.3901848
16-07-12-00-00,USA,Saint Augustine,FL,Circle,REDACTED,29.8946952,-81.3145394
16-07-12-23-30,USA,Anchorage,AK,Flash,REDACTED,61.2163129,-149.8948522
16-07-12-22-50,USA,Napili,HI,Fireball,REDACTED,20.9717546,-156.6756045
16-07-12-22-10,USA,Bellingham,WA,Fireball,REDACTED,48.754402,-122.4788601
16-07-12-19-15,USA,Snellville,GA,Circle,REDACTED,33.857328,-84.0199107
16-07-12-18-53,USA,Las Vegas,NV,Other,REDACTED,36.1662859,-115.1492249
16-07-12-18-20,USA,Riverdale,GA,Cylinder,REDACTED,33.5726113,-84.4132593
16-07-12-18-00,USA,Plymouth,MA,Light,REDACTED,41.9584367,-70.6672576
16-07-12-07-00,USA,Orlando,FL,Fireball,REDACTED,28.5479786,-81.4127841
16-06-12-20-45,USA,High Point,NC,Other,REDACTED,35.9556924,-80.0053175
16-06-12-19-15,USA,Austin,NV,Fireball,REDACTED,39.4932592,-117.0695385
16-06-12-19-00,USA,Austin,NV,Other,REDACTED,39.4932592,-117.0695385
16-06-12-18-00,USA,Nairn,LA,Formation,REDACTED,29.4279955,-89.6108946
16-06-12-17-30,USA,Holland,PA,Sphere,REDACTED,40.1728871,-74.9926687
16-06-12-17-00,USA,Manhattan,NY,Unknown,REDACTED,40.7902778,-73.9597221
16-06-12-13-15,USA,Lake Jackson,TX,Unknown,REDACTED,29.0338575,-95.4343858
16-06-12-07-15,USA,Union,IL,Chevron,REDACTED,37.4616454,-89.2504792
16-06-12-05-00,USA,Osterville,MA,Light,REDACTED,41.6293398,-70.3866805
16-06-12-01-40,USA,Sunrise,FL,Circle,REDACTED,26.1482449,-80.3288858
16-05-12-22-40,CANADA,Regina,SK,Light,REDACTED,50.4480951,-104.615818
16-05-12-20-05,USA,Niantic,CT,Triangle,REDACTED,32.7809195,-117.2524695
16-05-12-18-39,USA,Ivins,UT,Circle,REDACTED,37.1685907,-113.6794056
16-05-12-18-15,USA,Haskell,NJ,Triangle,REDACTED,41.0284304,-74.2959822
16-05-12-18-00,USA,Westmoreland,NH,Disk,REDACTED,42.9620253,-72.4423101
16-05-12-17-40,CANADA,Keswick,ON,Unknown,REDACTED,44.2278666,-79.46145
16-05-12-16-00,USA,Elizabethtown,PA,Changing,REDACTED,40.153364,-76.604252
16-05-12-04-00,USA,Webster,NY,Unknown,REDACTED,43.2122851,-77.4299938
16-05-12-03-30,USA,Stratford,CT,Light,REDACTED,37.2584705,-79.9622598
16-05-12-01-40,USA,La Pine,OR,Fireball,REDACTED,43.6703995,-121.5036359
16-04-12-23-10,USA,Sauk Rapids,MN,Triangle,REDACTED,45.5919097,-94.166101
16-04-12-22-40,USA,Huntington Beach,CA,Chevron,REDACTED,33.6783336,-118.0000165
16-04-12-20-00,USA,Freeport,ME,Diamond,REDACTED,43.857307,-70.1037599
16-04-12-19-32,USA,Sioux Falls,SD,Light,REDACTED,43.5499749,-96.7003269
16-04-12-19-10,USA,Arcade,GA,Circle,REDACTED,34.0778881,-83.5615535
16-04-12-19-00,USA,Redwood Falls,MN,Circle,REDACTED,44.5393721,-95.1164477
16-04-12-18-15,USA,Brinklow,MD,Circle,REDACTED,39.1659403,-77.0155329
16-04-12-18-00,USA,Winter Harbor,ME,Disk,REDACTED,44.395523,-68.0836489
16-04-12-17-30,USA,Severn,MD,Light,REDACTED,39.127886,-76.6869129
16-04-12-15-03,USA,Mission Viejo,CA,Light,REDACTED,33.5965685,-117.6594049
16-04-12-14-16,USA,Marana,AZ,Unknown,REDACTED,32.4446988,-111.215709
16-04-12-12-10,CANADA,London,ON,Other,REDACTED,42.988576,-81.2466429
16-03-12-23-37,USA,Matawan,NJ,Flash,REDACTED,40.41483,-74.229589
16-03-12-21-00,USA,Morgantown,WV,Light,REDACTED,39.6296809,-79.9559436
16-03-12-19-30,USA,Corte Madera,CA,Disk,REDACTED,37.9254806,-122.5274754
16-03-12-18-15,USA,Boone Grove,IN,Disk,REDACTED,41.3547602,-87.1294741
16-03-12-18-00,USA,Rockville,MD,Oval,REDACTED,39.0840054,-77.1527572
16-03-12-17-15,USA,North Snohomish,WA,Formation,REDACTED,47.9394115,-122.0779886
16-03-12-16-00,USA,Whittier,CA,Formation,REDACTED,33.9748932,-118.0336974
16-03-12-16-00,USA,Santa Cruz,CA,Light,REDACTED,36.9735903,-122.0260569
16-03-12-14-00,USA,Gorham,ME,Unknown,REDACTED,43.6796943,-70.4429341
16-02-12-22-00,USA,Philadelphia,PA,Light,REDACTED,39.9523993,-75.1635898
16-02-12-20-00,USA,Reidsville,NC,Light,REDACTED,36.354859,-79.6644749
16-02-12-18-00,USA,Raphine,VA,Circle,REDACTED,37.9373548,-79.2328101
16-02-12-17-13,USA,Chester,VA,Other,REDACTED,37.3569086,-77.4421817
16-02-12-17-00,USA,Ashland,VA,Unknown,REDACTED,37.7594012,-77.4806602
16-02-12-09-26,USA,Snellville,GA,Triangle,REDACTED,33.857328,-84.0199107
16-01-12-20-35,USA,Plainville,CT,Circle,REDACTED,41.6745432,-72.8581557
16-01-12-19-45,USA,Portland,TN,Light,REDACTED,36.5817089,-86.5163832
16-01-12-18-52,USA,Glendale,AZ,Light,REDACTED,33.5389854,-112.1858156
16-01-12-18-45,USA,Conway,SC,Formation,REDACTED,33.8360035,-79.0478142
16-01-12-18-17,USA,San Bernardino,CA,Light,REDACTED,34.1083449,-117.2897651
16-01-12-18-00,USA,Amherst,NY,Oval,REDACTED,42.9783924,-78.7997615
16-01-12-17-30,USA,Montgomery,AL,Circle,REDACTED,40.854156,-78.2711029
16-01-12-16-30,USA,Asbury Park,NJ,Oval,REDACTED,40.2203907,-74.0120816
16-11-30-23-45,USA,Edmonds,WA,Changing,REDACTED,47.8105738,-122.3774951
16-11-30-23-30,USA,Camp Shelby,MS,Unknown,REDACTED,31.1975317,-89.2078257
16-11-30-21-00,USA,Riverton,WY,Circle,REDACTED,38.515529,-121.5321489
16-11-30-20-40,USA,Radcliff,KY,Triangle,REDACTED,37.8403456,-85.9491297
16-11-30-20-00,USA,Kingsland,GA,Unknown,REDACTED,30.7999563,-81.689826
16-11-30-19-30,USA,Fayetteville,TX,Triangle,REDACTED,29.9057817,-96.6727527
16-11-29-23-30,USA,Belmont,MI,Circle,REDACTED,40.0057737,-81.0097515
16-11-29-22-47,USA,Bridgeport,WV,Oval,REDACTED,39.2864787,-80.256198
16-11-29-22-27,USA,American Canyon,CA,Triangle,REDACTED,38.223457,-122.227043
16-11-29-22-15,USA,Colorado Springs,CO,Triangle,REDACTED,38.8339578,-104.8253484
16-11-29-21-00,CANADA,Niagara Falls,ON,Circle,REDACTED,43.1089442,-79.0636192
16-11-29-20-15,USA,Carlinville,IL,Rectangle,REDACTED,39.2797699,-89.8817661
16-11-29-19-45,USA,Fairfield,CA,Changing,REDACTED,38.2493581,-122.0399662
16-11-29-19-45,USA,Englewood,CO,Unknown,REDACTED,39.6482059,-104.987964
16-11-29-19-00,USA,Corona,CA,Circle,REDACTED,37.0066161,-121.9969062
16-11-29-18-50,USA,Midland,MI,Triangle,REDACTED,43.6155825,-84.2472116
16-11-29-18-20,USA,Janesville,WI,Other,REDACTED,42.7151854,-88.9907742
16-11-29-12-10,USA,Plainfield,IL,Changing,REDACTED,41.623191,-88.2284325
16-11-29-06-45,USA,Happy Valley,OR,Circle,REDACTED,43.1358923,-122.3804695
16-11-29-06-00,USA,Anchor Point,AK,Fireball,REDACTED,59.76826,-151.6775519
16-11-29-00-17,USA,Fishers,IN,Triangle,REDACTED,39.9555928,-86.0138728
16-11-28-23-00,USA,Sutherlin,OR,Other,REDACTED,43.3896628,-123.3123597
16-11-28-23-00,USA,Tazewell,VA,Circle,REDACTED,37.1236041,-81.5684128
16-11-28-22-00,USA,Athol,MA,Light,REDACTED,42.5959203,-72.2267496
16-11-28-19-00,USA,American Canyon,CA,Chevron,REDACTED,38.223457,-122.227043
16-11-28-18-48,USA,Ste. Genevieve,MO,Light,REDACTED,37.9814415,-90.0417789
16-11-28-18-35,USA,St. Petersburg,FL,Circle,REDACTED,27.77330515,-82.6469933
16-11-28-18-30,USA,Waynesville,MO,Light,REDACTED,37.8286516,-92.2007226
16-11-28-18-00,USA,Seekonk,RI,Circle,REDACTED,41.8674548,-71.3797769
16-11-28-17-15,USA,Vineland,NJ,Changing,REDACTED,39.473152,-75.0020264
16-11-28-16-45,USA,Fairfield,ME,Cross,REDACTED,44.588511,-69.5990749
16-11-28-06-51,USA,Athens,GA,Cigar,REDACTED,33.94385375,-83.3972898
16-11-28-06-00,USA,Centerville,IL,Fireball,REDACTED,31.2579584,-95.9782919
16-11-28-01-29,USA,Mooresville,NC,Light,REDACTED,35.5848596,-80.8100723
16-11-28-00-00,USA,Grand Junction,CO,Unknown,REDACTED,39.063956,-108.5507316
16-11-27-22-15,CANADA,Carrying Place,ON,Light,REDACTED,43.8088119,-79.2334018
16-11-27-19-30,USA,St. Petersburg,FL,Circle,REDACTED,27.77330515,-82.6469933
16-11-27-16-58,USA,Bay Shore,NY,Light,REDACTED,40.7250986,-73.2453945
16-11-27-12-45,USA,Longmont,CO,Rectangle,REDACTED,40.1672117,-105.1019286
16-11-27-12-35,USA,Kenmore,WA,Circle,REDACTED,47.7573202,-122.2440147
16-11-27-11-30,USA,Maui,HI,Unknown,REDACTED,20.8029568,-156.3106832
16-11-27-10-00,USA,Allentown,PA,Fireball,REDACTED,40.6022059,-75.4712793
16-11-27-03-20,USA,Lake Charles,LA,Light,REDACTED,30.2265949,-93.2173758
16-11-27-00-07,USA,Raymond,NE,Circle,REDACTED,40.956282,-96.7834109
16-11-26-23-42,USA,Bailey,CO,Disk,REDACTED,34.0349194,-102.8149371
16-11-26-23-33,USA,Bergen,NY,Triangle,REDACTED,43.085391,-77.9417139
16-11-26-23-30,USA,Middletown,NY,Light,REDACTED,41.4459271,-74.422934
16-11-26-22-30,USA,Charlotte,NC,Light,REDACTED,35.2270869,-80.8431267
16-11-26-22-00,USA,Davenport,FL,Circle,REDACTED,28.1614046,-81.6017416
16-11-26-21-45,USA,Allen Park,MI,Light,REDACTED,42.2575385,-83.2110374
16-11-26-19-35,USA,Naugatuck,CT,Light,REDACTED,41.4860186,-73.0509431
16-11-26-19-27,USA,Venice,FL,Light,REDACTED,27.0998708,-82.4544131
16-11-26-19-00,USA,Fairview,OR,Triangle,REDACTED,45.5469302,-122.4370392
16-11-26-18-30,USA,McDonough,GA,Light,REDACTED,33.4473361,-84.1468615
16-11-26-18-00,USA,Spearfish,SD,Disk,REDACTED,44.490817,-103.8593699
16-11-26-18-00,USA,Shallotte,NC,Changing,REDACTED,33.9732275,-78.385837
16-11-26-17-30,USA,Brooklyn,NY,Triangle,REDACTED,40.64530975,-73.9550229
16-11-26-16-56,USA,McChord AFB,WA,Fireball,REDACTED,47.1377,-122.4764999
16-11-26-15-00,USA,Vacaville,CA,Sphere,REDACTED,38.3565773,-121.9877443
16-11-26-04-00,USA,West New York,NJ,Light,REDACTED,40.785529,-74.0083002
16-11-25-22-00,USA,Olathe,KS,Chevron,REDACTED,38.8843867,-94.8161126
16-11-25-20-47,USA,Tyrone,GA,Light,REDACTED,33.6723506,-82.8612562
16-11-25-20-00,USA,Vero Beach,FL,Sphere,REDACTED,27.6387163,-80.3975398
16-11-25-19-00,USA,Bedford,IN,Sphere,REDACTED,38.8611619,-86.4872148
16-11-25-19-00,USA,Nevada,NV,Light,REDACTED,39.5158825,-116.8537226
16-11-25-18-30,USA,Brandon,FL,Fireball,REDACTED,27.928464,-82.2880445
16-11-25-18-30,USA,Port Orange,FL,Unknown,REDACTED,29.10150985,-81.0105537
16-11-25-17-30,USA,Torrance,CA,Light,REDACTED,33.8358492,-118.3406287
16-11-25-11-00,USA,Longmont,CO,Circle,REDACTED,40.1672117,-105.1019286
16-11-25-07-48,USA,Corpus Christi,TX,Unknown,REDACTED,27.8002542,-97.3955743
16-11-25-01-30,USA,Warner Robins,GA,Light,REDACTED,32.598313,-83.6256769
16-11-25-01-11,USA,Newcastle,WA,Flash,REDACTED,47.5395736,-122.156333
16-11-24-23-00,USA,Graham,NC,Circle,REDACTED,36.069026,-79.4005759
16-11-24-21-45,USA,Annapolis,MD,Light,REDACTED,38.9786401,-76.4927859
16-11-24-20-30,USA,Balko,OK,Light,REDACTED,36.6600752,-100.679207
16-11-24-19-30,USA,Largo,FL,Unknown,REDACTED,27.9094665,-82.7873243
16-11-24-19-12,USA,Woodbridge,NJ,Light,REDACTED,40.55418,-74.2860007
16-11-24-19-12,USA,Woodbridge,NJ,Oval,REDACTED,40.55418,-74.2860007
16-11-24-18-30,USA,Oldsmar,FL,Sphere,REDACTED,28.06906015,-82.6501914
16-11-24-18-00,USA,Zebulon,NC,Disk,REDACTED,35.824321,-78.3147199
16-11-24-17-45,USA,Monrovia,MD,Light,REDACTED,39.3720477,-77.2719278
16-11-24-03-00,USA,Grand Junction,CO,Disk,REDACTED,39.063956,-108.5507316
16-11-24-02-00,USA,Colorado Springs,CO,Light,REDACTED,38.8339578,-104.8253484
16-11-24-00-05,USA,D'iberville,MS,Light,REDACTED,30.4263092,-88.8908637
16-11-23-23-00,USA,Tinton Falls,NJ,Light,REDACTED,40.3159438,-74.0851403
16-11-23-22-30,USA,Beaverton,OR,Disk,REDACTED,45.4871723,-122.8037803
16-11-23-21-15,USA,Central Square,NY,Light,REDACTED,43.286736,-76.1460359
16-11-23-19-20,USA,Carlsbad,CA,Unknown,REDACTED,33.1580933,-117.3505938
16-11-23-01-43,USA,Poteau,OK,Sphere,REDACTED,35.0537094,-94.6235578
16-11-22-21-30,USA,Mesa,AZ,Light,REDACTED,33.436188,-111.5860661
16-11-22-21-30,CANADA,Oshawa,ON,Sphere,REDACTED,43.9172764,-78.8614873
16-11-22-21-10,USA,Largo,FL,Chevron,REDACTED,27.9094665,-82.7873243
16-11-22-21-00,USA,Beecher,IL,Chevron,REDACTED,41.34059,-87.6214285
16-11-22-21-00,USA,Santa Clara,UT,Other,REDACTED,37.1330355,-113.6541265
16-11-22-21-00,USA,Santa Clara,UT,Other,REDACTED,37.1330355,-113.6541265
16-11-22-20-30,USA,Derby,KS,Flash,REDACTED,37.5455735,-97.268933
16-11-22-19-30,USA,Cecil,PA,Formation,REDACTED,32.3026416,-86.0085693
16-11-22-16-17,USA,Atkinson,NH,Other,REDACTED,42.8384221,-71.1470036
16-11-22-11-29,USA,Brooklyn,NY,Circle,REDACTED,40.64530975,-73.9550229
16-11-22-11-00,USA,Floral City,FL,Chevron,REDACTED,28.7211775,-82.3076844
16-11-22-07-50,USA,Jarrettsville,MD,Diamond,REDACTED,39.60455,-76.4777421
16-11-22-07-00,USA,Gainesville,GA,Other,REDACTED,34.2978794,-83.8240662
16-11-22-05-20,USA,San Diego,CA,Sphere,REDACTED,32.7174209,-117.1627713
16-11-22-04-45,USA,Scarborough,ME,Flash,REDACTED,43.59622635,-70.3300556
16-11-22-02-30,USA,Bismarck,ND,Circle,REDACTED,46.8083268,-100.7837391
16-11-21-23-35,USA,Key Colony Beach,FL,Light,REDACTED,24.7209744,-81.0186826
16-11-21-23-15,CANADA,Victoria,BC,Other,REDACTED,48.4283327,-123.3649268
16-11-21-18-25,USA,Riverdale,GA,Oval,REDACTED,33.5726113,-84.4132593
16-11-21-18-00,USA,Fountain Hill,AR,Light,REDACTED,33.3578937,-91.8504083
16-11-21-18-00,USA,Ventura,CA,Circle,REDACTED,34.364744,-119.3105822
16-11-21-17-00,USA,Alexandria,VA,Fireball,REDACTED,33.7237617,-116.2673236
16-11-21-07-30,USA,Pearisburg,VA,Triangle,REDACTED,37.3265112,-80.7350711
16-11-21-06-00,USA,Miramar Beach,FL,Sphere,REDACTED,30.38208845,-86.3640414
16-11-21-03-30,USA,Honolulu,HI,Other,REDACTED,21.304547,-157.8556763
16-11-21-02-00,USA,Sherman Oaks,CA,Unknown,REDACTED,34.1508718,-118.4489864
16-11-21-00-05,USA,Burbank,CA,Oval,REDACTED,34.1816482,-118.3258553
16-11-20-00-00,USA,McKinney,TX,Light,REDACTED,33.1976496,-96.615447
16-11-20-23-30,USA,Boise,ID,Unknown,REDACTED,43.61656,-116.2008349
16-11-20-22-23,USA,Springfield,IL,Light,REDACTED,39.7989763,-89.6443687
16-11-20-22-00,USA,San Jose,CA,Fireball,REDACTED,37.3361905,-121.8905832
16-11-20-21-20,USA,Charleston,TN,Formation,REDACTED,35.4959148,-89.5089637
16-11-20-11-10,USA,Lincoln,NE,Oval,REDACTED,40.8,-96.6678209
16-11-20-09-30,USA,Franklin,WI,Light,REDACTED,44.2127373,-91.123762
16-11-20-07-10,USA,Pamplin,VA,Changing,REDACTED,37.2634817,-78.6825049
16-11-19-22-00,USA,Apollo Beach,FL,Light,REDACTED,27.7729445,-82.3981418
16-11-19-21-30,USA,Salt Lake City,UT,Circle,REDACTED,40.7670126,-111.8904307
16-11-19-21-00,USA,Myrtle Beach,SC,Circle,REDACTED,33.6956461,-78.8900408
16-11-19-20-40,USA,Oregon City,OR,Light,REDACTED,45.3573429,-122.6067582
16-11-19-20-00,USA,San Marcos,CA,Circle,REDACTED,33.1433723,-117.1661448
16-11-19-19-15,USA,Jefferson City,MO,Chevron,REDACTED,38.577359,-92.1724264
16-11-19-19-00,CANADA,Victoria,BC,Oval,REDACTED,48.4283327,-123.3649268
16-11-19-19-00,USA,Boynton Beach,FL,Circle,REDACTED,26.5253491,-80.0664308
16-11-19-18-30,USA,Brandon,FL,Triangle,REDACTED,27.928464,-82.2880445
16-11-19-18-30,USA,Zephyrhills,FL,Fireball,REDACTED,28.2336196,-82.1811946
16-11-19-18-22,USA,Bristol,CT,Light,REDACTED,37.9317492,-122.0327847
16-11-19-18-15,USA,Woodbridge,VA,Formation,REDACTED,38.658172,-77.2497049
16-11-19-18-00,USA,Fishers,IN,Light,REDACTED,39.9555928,-86.0138728
16-11-19-17-30,USA,Louisville,KY,Other,REDACTED,38.2542376,-85.7594069
16-11-19-17-30,USA,Woodbridge,VA,Circle,REDACTED,38.658172,-77.2497049
16-11-19-16-30,USA,Blaine,MN,Rectangle,REDACTED,45.1607987,-93.2349488
16-11-19-16-00,USA,Ferrisburgh,VT,Light,REDACTED,44.205835,-73.2465359
16-11-19-15-00,USA,Springfield,MA,Circle,REDACTED,42.1014831,-72.5898109
16-11-19-12-05,USA,Newnan,GA,Light,REDACTED,33.3806716,-84.7996572
16-11-19-11-30,USA,Largo,FL,Chevron,REDACTED,27.9094665,-82.7873243
16-11-19-09-00,USA,Cape Coral,FL,Unknown,REDACTED,26.6058996,-81.9807339
16-11-19-07-34,USA,Wichita,KS,Light,REDACTED,37.6922361,-97.3375447
16-11-19-07-00,USA,Smithton,PA,Oval,REDACTED,40.1539613,-79.7411534
16-11-19-05-05,USA,Obernburg,NY,Cylinder,REDACTED,41.8448104,-75.0071096
16-11-18-23-30,USA,Columbus,OH,Cylinder,REDACTED,39.9622601,-83.0007064
16-11-18-23-00,USA,Sioux Falls,SD,Chevron,REDACTED,43.5499749,-96.7003269
16-11-18-21-00,USA,Fletcher,NC,Triangle,REDACTED,35.4306712,-82.5012315
16-11-18-19-25,USA,Billings,MT,Triangle,REDACTED,45.7874957,-108.4960699
16-11-18-19-25,USA,Billings,MT,Triangle,REDACTED,45.7874957,-108.4960699
16-11-18-19-15,USA,Stone Creek,OH,Triangle,REDACTED,40.3972892,-81.5620642
16-11-18-18-30,USA,Carrollton,OH,Circle,REDACTED,40.5728404,-81.0856531
16-11-18-17-30,USA,Hampton,VA,Sphere,REDACTED,37.0300969,-76.3452056
16-11-18-16-00,USA,Nashville,TN,Changing,REDACTED,36.1622296,-86.774353
16-11-18-14-00,USA,Kittery,ME,Other,REDACTED,43.1033619,-70.7851622
16-11-18-10-45,USA,McMurray,PA,Triangle,REDACTED,40.2790921,-80.1017976
16-11-18-08-25,USA,Bronx,NY,Cigar,REDACTED,40.85703325,-73.83669606
16-11-18-06-12,USA,New York City,NY,Rectangle,REDACTED,40.7305991,-73.9865811
16-11-18-01-44,USA,Farmington,NH,Fireball,REDACTED,43.39008,-71.0657499
16-11-17-22-00,USA,Buena Park,CA,Light,REDACTED,33.870413,-117.9962164
16-11-17-21-30,USA,Athens,OH,Light,REDACTED,39.3292396,-82.1012554
16-11-17-21-30,USA,Methuen,MA,Light,REDACTED,42.7262016,-71.1908923
16-11-17-20-30,USA,Benton City,WA,Light,REDACTED,46.2631897,-119.4878019
16-11-17-20-00,USA,Stevens Point,WI,Formation,REDACTED,44.5229223,-89.5741109
16-11-17-20-00,USA,High Point,NC,Circle,REDACTED,35.9556924,-80.0053175
16-11-17-20-00,USA,Caldwell,ID,Formation,REDACTED,43.6678736,-116.6894155
16-11-17-20-00,USA,Balko,OK,Disk,REDACTED,36.6600752,-100.679207
16-11-17-19-40,USA,Jordan,MT,Fireball,REDACTED,47.32121,-106.9104609
16-11-17-19-35,USA,Elizabethton,TN,Circle,REDACTED,36.3487196,-82.2106875
16-11-17-19-24,USA,Lower Burrell,PA,Triangle,REDACTED,40.5882821,-79.7298186
16-11-17-19-00,USA,Hemet,CA,Disk,REDACTED,33.778562,-117.0357665
16-11-17-18-02,USA,Nampa,ID,Triangle,REDACTED,43.5737361,-116.5596312
16-11-17-13-00,USA,Oshkosh,WI,Light,REDACTED,44.0206919,-88.5408573
16-11-17-07-45,USA,Avon,CO,Light,REDACTED,39.6329025,-106.4711837
16-11-17-04-45,USA,Stonington,ME,Light,REDACTED,44.156593,-68.6672969
16-11-16-23-00,USA,Elk Grove,CA,Circle,REDACTED,38.4087993,-121.3716177
16-11-16-22-37,USA,Benson,AZ,Light,REDACTED,31.9678731,-110.2945759
16-11-16-22-15,USA,Schenectady,NY,Other,REDACTED,42.8095455,-74.0216719
16-11-16-22-00,CANADA,London,ON,Circle,REDACTED,42.988576,-81.2466429
16-11-16-20-50,USA,Middleton,ID,Sphere,REDACTED,43.7068282,-116.6201356
16-11-16-20-30,USA,Danville,KY,Light,REDACTED,37.6456488,-84.7721822
16-11-16-20-05,USA,Maple Grove,MN,Triangle,REDACTED,45.0759797,-93.4561051
16-11-16-20-00,USA,Lake Havasu City,AZ,Cross,REDACTED,34.4742786,-114.3440009
16-11-16-20-00,USA,Maricopa,AZ,Circle,REDACTED,33.34883,-112.4912299
16-11-16-19-00,USA,Carlton,OR,Fireball,REDACTED,45.2942822,-123.1764948
16-11-16-19-00,USA,Wood Village,OR,Light,REDACTED,45.5372449,-122.4178386
16-11-16-18-30,USA,Green Garden Township,IL,Light,REDACTED,46.4385488,-87.2793086
16-11-16-18-00,CANADA,Banff,AB,Disk,REDACTED,51.1777781,-115.5682503
16-11-16-18-00,USA,Frostproof,FL,Light,REDACTED,27.7458626,-81.5306312
16-11-16-18-00,USA,Egg Harbor Township,NJ,Other,REDACTED,39.3851791,-74.6756877
16-11-16-17-30,USA,Shady Cove,OR,Light,REDACTED,42.6109085,-122.8218511
16-11-16-17-17,USA,Fremont,WI,Light,REDACTED,44.2597027,-88.8648343
16-11-16-16-00,USA,Mosinee,WI,Fireball,REDACTED,44.7927298,-89.7035958
16-11-16-08-45,USA,Clarksville,TN,Triangle,REDACTED,36.5277607,-87.3588702
16-11-16-00-05,USA,Richland,WA,Formation,REDACTED,46.2778406,-119.2769066
16-11-15-20-10,USA,Bettendorf,IA,Light,REDACTED,41.5255466,-90.5081477
16-11-15-20-00,USA,Phoenix,AZ,Egg,REDACTED,33.4485866,-112.0773455
16-11-15-19-10,USA,Portland,OR,Triangle,REDACTED,45.5202471,-122.6741948
16-11-15-18-45,USA,Stevens Point,WI,Light,REDACTED,44.5229223,-89.5741109
16-11-15-18-30,USA,Seattle,WA,Light,REDACTED,47.6038321,-122.3300623
16-11-15-18-00,CANADA,Prince Albert,SK,Triangle,REDACTED,53.201097,-105.7489009
16-11-15-17-55,USA,Stevens Point,WI,Circle,REDACTED,44.5229223,-89.5741109
16-11-15-17-30,USA,Naperville,IL,Circle,REDACTED,41.7729107,-88.1478669
16-11-15-17-00,USA,Berlin,WI,Formation,REDACTED,43.9680365,-88.9434476
16-11-15-14-00,USA,Tahlequah,OK,Teardrop,REDACTED,35.91537,-94.9699559
16-11-15-08-00,USA,Glendale,AZ,Changing,REDACTED,33.5389854,-112.1858156
16-11-15-07-05,USA,Old Washington,OH,Formation,REDACTED,40.0386822,-81.444562
16-11-15-03-45,USA,Saltillo,MS,Fireball,REDACTED,34.3764923,-88.68172
16-11-15-03-29,USA,Portland,OR,Oval,REDACTED,45.5202471,-122.6741948
16-11-14-23-30,USA,Hillsboro,OR,Disk,REDACTED,45.5228939,-122.9898269
16-11-14-22-03,USA,Gardena,CA,Light,REDACTED,33.888658,-118.3076479
16-11-14-21-00,USA,Longmont,CO,Formation,REDACTED,40.1672117,-105.1019286
16-11-14-19-30,USA,Deltona,FL,Triangle,REDACTED,28.9005446,-81.2636737
16-11-14-19-25,USA,Central City,NE,Light,REDACTED,41.1158475,-98.0017248
16-11-14-19-21,USA,Irving,TX,Other,REDACTED,32.8629195,-96.97917017
16-11-14-19-17,USA,Jacksonville,FL,Light,REDACTED,30.3321838,-81.6556509
16-11-14-19-00,USA,Blanchardville,WI,Light,REDACTED,42.81032,-89.8622148
16-11-14-19-00,USA,Columbus,OH,Light,REDACTED,39.9622601,-83.0007064
16-11-14-18-45,USA,Summerville,SC,Light,REDACTED,33.0206179,-80.1747536
16-11-14-17-00,USA,Waupaca,WI,Formation,REDACTED,44.3735635,-89.03185979
16-11-14-16-15,USA,Wilkesboro,NC,Other,REDACTED,36.145965,-81.16064
16-11-14-07-30,CANADA,Pickering,ON,Unknown,REDACTED,43.8356637,-79.0905385
16-11-14-01-00,USA,Fresno,CA,Light,REDACTED,36.7295295,-119.7088612
16-11-14-00-00,USA,Glendale,AZ,Circle,REDACTED,33.5389854,-112.1858156
16-11-13-23-20,USA,Benson,VT,Triangle,REDACTED,43.71558845,-73.30815198
16-11-13-23-15,USA,Palmyra,PA,Circle,REDACTED,40.3089798,-76.5933012
16-11-13-23-00,USA,North Chesterfield,VA,Changing,REDACTED,38.6560565,-90.5742028
16-11-13-21-25,USA,Coconut Creek,FL,Oval,REDACTED,26.2714628,-80.18180782
16-11-13-21-00,USA,Chesapeake Bay,MD,Triangle,REDACTED,38.5167886,-76.3830045
16-11-13-21-00,CANADA,Ottawa,ON,Light,REDACTED,45.4210328,-75.6900218
16-11-13-20-45,USA,Chester,SD,Diamond,REDACTED,43.894974,-96.9264449
16-11-13-19-30,USA,Centerville,OH,Circle,REDACTED,39.6283928,-84.1593817
16-11-13-19-30,USA,Gila Bend,AZ,Light,REDACTED,32.9478267,-112.7168238
16-11-13-19-00,USA,Selma,IN,Changing,REDACTED,32.4078632,-87.0207472
16-11-13-18-41,CANADA,Grande Prairie,AB,Light,REDACTED,55.171025,-118.7951659
16-11-13-18-30,USA,Benicia,CA,Light,REDACTED,38.049365,-122.1585776
16-11-13-18-25,USA,Monroeville,PA,Fireball,REDACTED,40.4211798,-79.7881024
16-11-13-16-50,USA,Wheaton,MD,Fireball,REDACTED,39.0398314,-77.0552554
16-11-13-15-00,USA,Ottawa,IL,Cylinder,REDACTED,41.3516628,-88.8454359
16-11-13-14-10,USA,Elwood,IL,Unknown,REDACTED,41.4039201,-88.1117241
16-11-13-05-00,USA,Bagley,IA,Other,REDACTED,41.8460964,-94.4299693
16-11-13-00-01,USA,Grand Rapids,MI,Fireball,REDACTED,42.9632405,-85.6678638
16-11-13-00-00,USA,Stockton,CA,Disk,REDACTED,37.9577016,-121.2907795
16-12-11-22-00,USA,Maryville,TN,Sphere,REDACTED,35.7564719,-83.9704592
16-12-11-21-30,USA,Andersonville,TN,Rectangle,REDACTED,36.1986898,-84.0371391
16-12-11-21-10,USA,Auburn,WA,Circle,REDACTED,47.3075369,-122.2301807
16-12-11-21-00,USA,Baltimore,MD,Flash,REDACTED,39.2908816,-76.6107589
16-12-11-20-55,USA,New Market,MD,Changing,REDACTED,39.3826031,-77.2694277
16-12-11-20-40,USA,Chesterfield,MI,Formation,REDACTED,38.6560565,-90.5742028
16-12-11-20-10,USA,Highland Park,IL,Light,REDACTED,42.1816919,-87.8003437
16-12-11-19-30,USA,Melbourne,FL,Light,REDACTED,28.0836269,-80.6081088
16-12-11-19-00,USA,Glendale,AZ,Circle,REDACTED,33.5389854,-112.1858156
16-12-11-18-05,USA,Durham,NC,Disk,REDACTED,35.9940329,-78.8986189
16-12-11-18-00,USA,Fountain Hill,AR,Changing,REDACTED,33.3578937,-91.8504083
16-12-11-15-41,USA,Bethesda,MD,Fireball,REDACTED,38.9848265,-77.0946458
16-12-11-14-00,USA,Bristol,VA,Sphere,REDACTED,36.5959685,-82.1885008
16-12-11-07-00,USA,Twin Falls,ID,Circle,REDACTED,42.5704219,-114.460317
16-12-11-06-00,USA,Bloomfield Hills,MI,Oval,REDACTED,42.583645,-83.2454882
16-12-11-01-15,USA,Louisville,KY,Fireball,REDACTED,38.2542376,-85.7594069
16-12-11-00-00,USA,Freeport,NY,Oval,REDACTED,40.6576022,-73.5831834
16-11-11-23-00,USA,Middletown,DE,Disk,REDACTED,39.449556,-75.7163206
16-11-11-23-00,USA,Alabaster,AL,Light,REDACTED,33.2442813,-86.8163772
16-11-11-22-54,USA,Owatonna,MN,Fireball,REDACTED,44.0839937,-93.2261075
16-11-11-21-50,USA,Jasper County,IA,Flash,REDACTED,41.6791308,-93.0647785
16-11-11-21-45,USA,Anchorage,AK,Cigar,REDACTED,61.2163129,-149.8948522
16-11-11-21-05,USA,Terra Linda,CA,Light,REDACTED,38.0040893,-122.5496999
16-11-11-21-05,USA,Terra Linda,CA,Light,REDACTED,38.0040893,-122.5496999
16-11-11-19-30,USA,Raleigh,NC,Circle,REDACTED,35.7803977,-78.6390988
16-11-11-18-45,USA,Phoenix,AZ,Light,REDACTED,33.4485866,-112.0773455
16-11-11-18-30,USA,Boca Raton,FL,Sphere,REDACTED,26.3586885,-80.0830983
16-11-11-18-24,USA,Salt Lake City,UT,Light,REDACTED,40.7670126,-111.8904307
16-11-11-18-15,USA,West Palm Beach,FL,Light,REDACTED,26.7153425,-80.0533745
16-11-11-18-00,USA,Nashua,NH,Circle,REDACTED,42.7653662,-71.4675659
16-11-11-17-30,USA,Moss Point,MS,Light,REDACTED,30.4115881,-88.53446
16-11-11-11-46,USA,Greeley,CO,Sphere,REDACTED,38.4570355,-101.8185006
16-11-11-11-00,USA,West Salem,OR,Unknown,REDACTED,44.9482087,-123.0629462
16-11-11-11-00,USA,Keizer,OR,Unknown,REDACTED,44.9958075,-123.0197172
16-11-11-08-30,USA,Herod,IL,Other,REDACTED,37.5803268,-88.4361546
16-11-11-07-20,USA,Leominster,MA,Cigar,REDACTED,42.5250906,-71.7597939
16-11-11-06-11,USA,Pompano beach,FL,Triangle,REDACTED,26.2378597,-80.1247666
16-11-11-05-30,USA,Gilcrest,CO,Teardrop,REDACTED,40.282292,-104.7780808
16-11-11-00-23,USA,Lamont,CA,Oval,REDACTED,35.2597222,-118.9142432
16-11-11-00-00,USA,Keizer,OR,Unknown,REDACTED,44.9958075,-123.0197172
16-10-11-23-30,USA,Watervliet,NY,Light,REDACTED,42.7300784,-73.7012298
16-10-11-23-00,USA,Oceanside,CA,Light,REDACTED,33.1958696,-117.3794833
16-10-11-21-53,USA,Eldora,IA,Light,REDACTED,42.360816,-93.0996463
16-10-11-21-53,USA,Eldora,IA,Light,REDACTED,42.360816,-93.0996463
16-10-11-21-43,USA,Colby,WI,Teardrop,REDACTED,44.9099665,-90.315691
16-10-11-21-00,USA,Lake Tansi,TN,Light,REDACTED,35.8732914,-85.0953336
16-10-11-20-40,CANADA,La Ronge,SK,Unknown,REDACTED,55.100373,-105.3012079
16-10-11-20-40,USA,Virginia Beach,VA,Disk,REDACTED,36.8529841,-75.9774182
16-10-11-20-15,USA,Lemon Grove,CA,Light,REDACTED,32.7425516,-117.0314171
16-10-11-19-45,USA,Indianapolis,IN,Sphere,REDACTED,39.7683331,-86.1583501
16-10-11-19-35,USA,Colorado Springs,CO,Light,REDACTED,38.8339578,-104.8253484
16-10-11-19-30,USA,Indianapolis,IN,Light,REDACTED,39.7683331,-86.1583501
16-10-11-19-17,USA,Glendale,AZ,Light,REDACTED,33.5389854,-112.1858156
16-10-11-19-15,USA,Glendale,AZ,Light,REDACTED,33.5389854,-112.1858156
16-10-11-19-15,USA,Phoenix,AZ,Formation,REDACTED,33.4485866,-112.0773455
16-10-11-19-00,USA,Glendale,AZ,Formation,REDACTED,33.5389854,-112.1858156
16-10-11-19-00,USA,Phoenix,AZ,Circle,REDACTED,33.4485866,-112.0773455
16-10-11-18-40,USA,Euless,TX,Circle,REDACTED,32.8465405,-97.06673619
16-10-11-18-00,USA,San Jose,CA,Formation,REDACTED,37.3361905,-121.8905832
16-10-11-18-00,USA,Washington,PA,Light,REDACTED,40.1943798,-80.254125
16-10-11-17-45,USA,Arlington,WA,Light,REDACTED,48.1810957,-122.1389547
16-10-11-17-30,USA,Vienna,OH,Light,REDACTED,41.2378345,-80.6642431
16-10-11-17-20,USA,Lester Prairie,MN,Sphere,REDACTED,44.8838514,-94.0416388
16-10-11-16-28,USA,Irma,WI,Cigar,REDACTED,45.3513545,-89.6665189
16-10-11-15-30,USA,Glendale,AZ,Other,REDACTED,33.5389854,-112.1858156
16-10-11-13-38,USA,Alexandria,VA,Formation,REDACTED,33.7237617,-116.2673236
16-10-11-08-35,CANADA,Saskatoon,SK,Cylinder,REDACTED,52.1303794,-106.6605123
16-10-11-08-34,CANADA,Saskatoon,SK,Cylinder,REDACTED,52.1303794,-106.6605123
16-10-11-00-00,USA,La Habra,CA,Light,REDACTED,33.9318775,-117.9461073
16-09-11-23-58,USA,Albemarle,NC,Cylinder,REDACTED,35.3501426,-80.2000577
16-09-11-23-00,USA,Madison,SD,Light,REDACTED,44.006085,-97.1139499
16-09-11-21-30,USA,Spokane,WA,Triangle,REDACTED,47.6588603,-117.4247133
16-09-11-21-30,USA,San Rafael,CA,Circle,REDACTED,37.9735346,-122.5310873
16-09-11-21-00,USA,Chicago,IL,Circle,REDACTED,41.8755546,-87.6244211
16-09-11-21-00,USA,Kirkland,WA,Light,REDACTED,47.6859573,-122.1920248
16-09-11-18-30,USA,Summerville,SC,Triangle,REDACTED,33.0206179,-80.1747536
16-09-11-18-20,CANADA,Saskatoon,SK,Unknown,REDACTED,52.1303794,-106.6605123
16-09-11-18-15,CANADA,Fort Fraser,BC,Light,REDACTED,54.061971,-124.5549847
16-09-11-18-00,USA,Helena,MT,Triangle,REDACTED,46.5927122,-112.0361089
16-09-11-17-12,USA,Portage,IN,Other,REDACTED,41.5758708,-87.1761454
16-09-11-17-00,USA,Leominster,MA,Disk,REDACTED,42.5250906,-71.7597939
16-09-11-17-00,USA,Detroit,MI,Unknown,REDACTED,42.3486635,-83.0567374
16-09-11-16-45,USA,Santa Ana,CA,Unknown,REDACTED,33.7494951,-117.8732212
16-09-11-16-35,USA,Silverton,OR,Disk,REDACTED,45.0049305,-122.7832946
16-09-11-13-55,USA,Findlay,OH,Circle,REDACTED,41.0413873,-83.6503981
16-09-11-12-15,USA,Independence,MO,Diamond,REDACTED,39.0911161,-94.4155067
16-09-11-12-15,USA,Independence,MO,Diamond,REDACTED,39.0911161,-94.4155067
16-09-11-05-15,USA,Mountain View,MO,Fireball,REDACTED,33.3401005,-104.5233016
16-09-11-03-40,USA,Wheat Ridge,CO,Light,REDACTED,39.766098,-105.0772062
16-08-11-23-11,USA,San Antonio,FL,Triangle,REDACTED,28.3361142,-82.2745307
16-08-11-22-57,USA,Wilmington,NC,Fireball,REDACTED,34.2257282,-77.9447106
16-08-11-22-00,USA,Hanford,CA,Light,REDACTED,36.3274502,-119.6456843
16-08-11-21-50,USA,Garden City,ID,Other,REDACTED,43.622111,-116.2381786
16-08-11-21-00,USA,Rolling Prairie,IN,Unknown,REDACTED,43.4591601,-88.7342713
16-08-11-20-30,CANADA,Edmonton,AB,Light,REDACTED,53.5343609,-113.5065084
16-08-11-20-00,USA,Tulsa,OK,Other,REDACTED,36.1556805,-95.9929112
16-08-11-20-00,USA,Silver Spring,MD,Light,REDACTED,38.9959081,-77.0288917
16-08-11-00-05,USA,Walla Walla,WA,Triangle,REDACTED,46.0649999,-118.3302783
16-08-11-00-00,USA,Redmond,WA,Chevron,REDACTED,47.6694141,-122.1238766
16-07-11-22-00,USA,Bethlehem,GA,Unknown,REDACTED,34.9020296,-84.0774117
16-07-11-21-15,USA,Boise,ID,Light,REDACTED,43.61656,-116.2008349
16-07-11-21-15,USA,Gordonsville,TN,Circle,REDACTED,36.1729031,-85.9299965
16-07-11-20-20,USA,Moon,PA,Triangle,REDACTED,33.1584497,-86.2385845
16-07-11-19-45,USA,Reinholds,PA,Sphere,REDACTED,40.2667588,-76.1154996
16-07-11-19-05,USA,Reno,NV,Circle,REDACTED,39.52927,-119.8136743
16-07-11-19-00,USA,Oregon House,CA,Circle,REDACTED,39.3562796,-121.2791272
16-07-11-18-55,USA,Snohomish,WA,Triangle,REDACTED,48.0074736,-121.7304881
16-07-11-18-20,USA,Fargo,ND,Triangle,REDACTED,46.8772292,-96.7898209
16-07-11-17-50,USA,Reseda,CA,Chevron,REDACTED,34.2011156,-118.5364741
16-07-11-17-49,USA,Porter Ranch,CA,Triangle,REDACTED,34.2875607,-118.5528384
16-07-11-17-36,USA,Berlin,WI,Unknown,REDACTED,43.9680365,-88.9434476
16-07-11-17-00,USA,McCordsville,IN,Oval,REDACTED,39.8939648,-85.9219416
16-07-11-16-00,USA,Lidgerwood,ND,Circle,REDACTED,46.075516,-97.1517549
16-07-11-13-30,USA,Staten Island,NY,Egg,REDACTED,40.5834557,-74.1496047
16-07-11-10-30,USA,Portland,OR,Other,REDACTED,45.5202471,-122.6741948
16-07-11-07-30,USA,Lidgerwood,ND,Circle,REDACTED,46.075516,-97.1517549
16-07-11-06-03,USA,Creston,IA,Sphere,REDACTED,41.0586002,-94.3613474
16-07-11-05-00,USA,Ventura,CA,Unknown,REDACTED,34.364744,-119.3105822
16-06-11-21-20,USA,Dripping Springs,TX,Light,REDACTED,30.1902067,-98.086678
16-06-11-21-15,USA,Colorado Springs,CO,Triangle,REDACTED,38.8339578,-104.8253484
16-06-11-20-35,USA,Villa Park,IL,Circle,REDACTED,41.8891319,-87.9774853
16-06-11-20-15,USA,Las Vegas,NV,Circle,REDACTED,36.1662859,-115.1492249
16-06-11-20-12,USA,Palmyra,MO,Light,REDACTED,39.7942118,-91.5232105
16-06-11-20-03,USA,Hoschton,GA,Light,REDACTED,34.096496,-83.7612838
16-06-11-18-45,USA,Pittsburgh,PA,Unknown,REDACTED,40.4416941,-79.990086
16-06-11-18-30,USA,Delco,NC,Other,REDACTED,34.3157241,-78.224721
16-06-11-18-15,USA,Osceola,IA,Flash,REDACTED,43.3684613,-95.6299943
16-06-11-14-00,USA,Mequon,WI,Changing,REDACTED,43.2219088,-87.9822968
16-06-11-11-10,USA,Bethany Beach,DE,Cone,REDACTED,38.5379676,-75.0588645
16-06-11-05-00,USA,Rosamond,CA,Circle,REDACTED,34.871511,-118.2157747
16-06-11-03-55,USA,Oak Lawn,IL,Unknown,REDACTED,41.7108662,-87.758108
16-06-11-02-30,USA,Amherst,MA,Unknown,REDACTED,42.3803676,-72.5231429
16-06-11-02-15,USA,Sanford,NC,Light,REDACTED,35.4798757,-79.1802993
16-06-11-01-00,USA,Palmyra,WI,Sphere,REDACTED,42.8777882,-88.5862121
16-06-11-00-30,USA,Avondale,AZ,Light,REDACTED,33.4359175,-112.340502
16-05-11-23-30,USA,Stevensville,MI,Light,REDACTED,42.0144871,-86.5194653
16-05-11-23-20,USA,Patterson,LA,Triangle,REDACTED,37.471623,-121.1296948
16-05-11-23-15,USA,Titusville,FL,Circle,REDACTED,28.6122187,-80.8075537
16-05-11-22-35,USA,Scottsdale,AZ,Fireball,REDACTED,33.5091215,-111.8992364
16-05-11-21-45,USA,Ithaca,NY,Light,REDACTED,42.4396039,-76.4968018
16-05-11-21-30,USA,Rochester,NY,Fireball,REDACTED,43.157285,-77.6152139
16-05-11-20-45,USA,Barboursville,WV,Formation,REDACTED,38.4095298,-82.2945922
16-05-11-20-30,USA,Jonesborough,TN,Circle,REDACTED,36.2942723,-82.4734785
16-05-11-20-15,USA,Goldhill,NC,Oval,REDACTED,35.5090288,-80.3111683
16-05-11-19-35,USA,Charlestown,RI,Light,REDACTED,41.3831566,-71.6417289
16-05-11-19-00,USA,Kingman,AZ,Unknown,REDACTED,35.189443,-114.0530064
16-05-11-18-45,USA,Derry,NH,Formation,REDACTED,42.8808677,-71.3264491
16-05-11-18-20,USA,Fairbanks,AK,Light,REDACTED,64.837845,-147.7166749
16-05-11-18-10,USA,Bethesda,MD,Fireball,REDACTED,38.9848265,-77.0946458
16-05-11-18-00,USA,Hampstead,MD,Fireball,REDACTED,39.6048252,-76.8499774
16-05-11-17-53,USA,West Orange,NJ,Fireball,REDACTED,40.7987113,-74.2390352
16-05-11-17-15,USA,Philadelphia,PA,Other,REDACTED,39.9523993,-75.1635898
16-05-11-17-00,USA,Elkton,MD,Light,REDACTED,39.606779,-75.8332719
16-05-11-15-45,USA,Burlington,WI,Light,REDACTED,42.6780726,-88.2762025
16-05-11-11-56,USA,Sioux Falls,SD,Oval,REDACTED,43.5499749,-96.7003269
16-05-11-06-45,USA,Sweetwater,AZ,Other,REDACTED,31.9609032,-112.5840347
16-05-11-06-38,USA,Manchester,NH,Formation,REDACTED,42.9956397,-71.454789
16-05-11-01-15,USA,Los Angeles,CA,Unknown,REDACTED,34.0543942,-118.2439408
16-05-11-00-15,USA,Holland,NY,Sphere,REDACTED,42.6411908,-78.541731
16-04-11-23-00,USA,Johns Island,SC,Triangle,REDACTED,32.7024009,-80.0481487
16-04-11-23-00,USA,Rochelle,IL,Chevron,REDACTED,41.9239178,-89.0687073
16-04-11-23-00,USA,Redbank,NJ,Formation,REDACTED,39.92492,-74.1453549
16-04-11-22-25,USA,Santa Rosa,CA,Cigar,REDACTED,38.4404675,-122.7144313
16-04-11-22-20,USA,Centerville,UT,Oval,REDACTED,40.9180005,-111.87216
16-04-11-19-38,USA,Sarles,ND,Fireball,REDACTED,48.94584,-98.9959609
16-04-11-19-22,USA,Columbus,OH,Other,REDACTED,39.9622601,-83.0007064
16-04-11-19-05,USA,Alvin,TX,Circle,REDACTED,29.4238472,-95.2441008
16-04-11-19-00,USA,Houston,TX,Formation,REDACTED,29.675779,-95.40215851
16-04-11-18-00,USA,Augusta,ME,Light,REDACTED,44.310517,-69.7792601
16-04-11-18-00,USA,Elizabeth,KY,Circle,REDACTED,38.0272055,-84.5142633
16-04-11-18-00,USA,Marianna,PA,Other,REDACTED,40.0247953,-80.1000561
16-04-11-17-00,USA,Boston,MA,Diamond,REDACTED,42.3604823,-71.0595677
16-04-11-17-00,CANADA,Qu√©bec City,QC,Disk,REDACTED,46.8257374,-71.2349113
16-04-11-16-00,USA,Sheffield,MA,Other,REDACTED,42.1103686,-73.3551147
16-04-11-07-20,USA,Framingham,MA,Unknown,REDACTED,42.2792625,-71.4161719
16-04-11-07-15,USA,Woodstock,GA,Light,REDACTED,34.1014112,-84.5192191
16-04-11-05-22,CANADA,Mississauga,ON,Unknown,REDACTED,43.5892854,-79.6441645
16-04-11-05-15,USA,Lansing,MI,Formation,REDACTED,42.7337712,-84.5553804
16-04-11-05-00,USA,Pollock Pines,CA,Light,REDACTED,38.7497125,-120.5776644
16-04-11-04-00,USA,Billings,MT,Formation,REDACTED,45.7874957,-108.4960699
16-04-11-02-17,USA,Hollywood,CA,Chevron,REDACTED,34.1028268,-118.3299898
16-04-11-01-00,USA,Voorhees,NJ,Unknown,REDACTED,39.841635,-74.93768531
16-04-11-01-00,USA,Tempe,AZ,Light,REDACTED,33.4144139,-111.9094473
16-04-11-00-00,USA,Ellsworth,WI,Sphere,REDACTED,44.7321897,-92.4874123
16-03-11-23-00,USA,Park City,UT,Disk,REDACTED,40.6460635,-111.497974
16-03-11-20-42,USA,West Jordan,UT,Unknown,REDACTED,40.6096698,-111.939103
16-03-11-19-30,USA,Hailey,ID,Fireball,REDACTED,43.519629,-114.3153249
16-03-11-19-00,USA,Helena,MT,Circle,REDACTED,46.5927122,-112.0361089
16-03-11-17-10,USA,Charlotte,NC,Light,REDACTED,35.2270869,-80.8431267
16-03-11-08-30,USA,Whittier,NC,Unknown,REDACTED,35.4350977,-83.3601541
16-03-11-07-45,USA,Corolla,NC,Disk,REDACTED,36.3847464,-75.8286982
16-03-11-07-30,USA,Mt. Pleasant,NC,Oval,REDACTED,35.8223779,-78.1124912
16-03-11-05-50,USA,Newton,MA,Light,REDACTED,42.3370414,-71.2092213
16-03-11-02-00,USA,Pawnee County,NE,Circle,REDACTED,40.1223248,-96.2629021
16-02-11-23-00,USA,Huntsville,AL,Cigar,REDACTED,33.561968,-86.7988139
16-02-11-20-42,USA,Congress,AZ,Light,REDACTED,34.162526,-112.8507373
16-02-11-20-11,USA,Falcon,CO,Flash,REDACTED,38.9330077,-104.6080825
16-02-11-20-00,USA,Junction City,OH,Sphere,REDACTED,39.7211793,-82.2987614
16-02-11-19-30,USA,Point Pleasant,WV,Circle,REDACTED,38.8445251,-82.1370888
16-02-11-19-00,USA,Canton,OH,Circle,REDACTED,40.7989522,-81.3784444
16-02-11-17-35,USA,Wantagh,NY,Circle,REDACTED,40.6837121,-73.5101257
16-01-11-22-15,USA,Robstown,TX,Circle,REDACTED,27.7903032,-97.6688842
16-01-11-22-00,USA,Eureka,CA,Triangle,REDACTED,40.8020712,-124.1636728
16-01-11-20-30,USA,Centerton,AR,Flash,REDACTED,36.346325,-94.33285765
16-01-11-20-25,USA,Tarentum,PA,Fireball,REDACTED,40.6014555,-79.7597708
16-01-11-20-20,USA,Hackensack,NJ,Light,REDACTED,40.8859326,-74.0434735
16-01-11-20-20,USA,Miller Place,NY,Other,REDACTED,40.9598212,-72.9962147
16-01-11-20-15,CANADA,Mississauga,ON,Circle,REDACTED,43.5892854,-79.6441645
16-01-11-20-05,USA,Circleville,OH,Other,REDACTED,39.600618,-82.9460132
16-01-11-20-05,USA,Ashburn,VA,Formation,REDACTED,39.0437192,-77.4874898
16-01-11-19-30,USA,Harrisburg,PA,Triangle,REDACTED,40.2663107,-76.8861121
16-01-11-18-30,USA,Ft. Lauderdale,FL,Light,REDACTED,26.1254381,-80.1381514
16-01-11-18-30,USA,Phil Campbell,AL,Light,REDACTED,34.3516416,-87.7053802
16-01-11-18-00,USA,Hemet,CA,Light,REDACTED,33.778562,-117.0357665
16-01-11-17-49,USA,Fairhaven,MA,Diamond,REDACTED,41.6376043,-70.9036486
16-01-11-17-00,USA,Gilroy,CA,Changing,REDACTED,37.0065078,-121.5631722
16-01-11-09-40,USA,Bensalem,PA,Oval,REDACTED,40.1045549,-74.9512789
16-01-11-05-00,USA,Albany,NY,Light,REDACTED,42.6511674,-73.7549679
16-01-11-00-01,USA,Houston,TX,Circle,REDACTED,29.675779,-95.40215851
16-10-31-23-00,USA,Mastic Beach,NY,Oval,REDACTED,40.7667655,-72.8520475
16-10-31-22-35,USA,Charlottesville,VA,Light,REDACTED,38.029306,-78.476678
16-10-31-19-55,USA,Pennsburg,PA,Unknown,REDACTED,40.3909328,-75.4921248
16-10-31-19-30,USA,Gretna,NE,Light,REDACTED,41.1408322,-96.2397417
16-10-31-17-30,USA,Thomasville,GA,Other,REDACTED,30.8365815,-83.9787807
16-10-31-15-00,USA,Tuckerton,NJ,Sphere,REDACTED,39.5960075,-74.32971056
16-10-31-11-40,CANADA,Cracroft Island,BC,Cross,REDACTED,50.5619196,-126.5825836
16-10-31-06-35,USA,Fort Myers,FL,Formation,REDACTED,26.47036109,-81.76928287
16-10-31-05-30,USA,Delta,CO,Light,REDACTED,38.8368777,-107.8568293
16-10-31-01-16,USA,Tempe,AZ,Fireball,REDACTED,33.4144139,-111.9094473
16-10-31-00-25,USA,Columbia,SC,Light,REDACTED,34.0007493,-81.0343312
16-10-31-00-00,USA,Greensboro,NC,Fireball,REDACTED,36.0726355,-79.7919753
16-10-30-22-15,USA,Wellington,FL,Oval,REDACTED,26.63799875,-80.25590771
16-10-30-21-30,USA,Oxnard,CA,Fireball,REDACTED,34.1976308,-119.1803817
16-10-30-21-10,USA,Athens,GA,Fireball,REDACTED,33.94385375,-83.39728979
16-10-30-21-00,USA,Fort Lauderdale,FL,Sphere,REDACTED,26.1254381,-80.1381514
16-10-30-21-00,USA,Cape Canaveral,FL,Circle,REDACTED,28.3881698,-80.60326402
16-10-30-21-00,USA,Hickory,NC,Other,REDACTED,35.7331895,-81.3412005
16-10-30-20-20,USA,Knoxville,TN,Light,REDACTED,35.9603948,-83.921026
16-10-30-20-00,CANADA,St. Thomas,ON,Chevron,REDACTED,42.7778056,-81.1822955
16-10-30-19-46,USA,Seguin,TX,Cone,REDACTED,29.5688411,-97.9647268
16-10-30-17-34,USA,Holmes Beach,FL,Disk,REDACTED,27.4953156,-82.7109328
16-10-30-04-00,USA,Everett,WA,Light,REDACTED,47.9673056,-122.2013997
16-10-30-02-00,USA,Dothan,AL,Circle,REDACTED,31.2232313,-85.3904888
16-10-29-00-00,USA,Alpharetta,GA,Fireball,REDACTED,34.0709576,-84.2747328
16-10-29-00-00,USA,Lansing,MI,Unknown,REDACTED,42.7337712,-84.5553804
16-10-29-22-45,USA,Hemet,CA,Light,REDACTED,33.778562,-117.0357665
16-10-29-22-00,USA,Mayfield Heights,OH,Triangle,REDACTED,41.5192189,-81.4578959
16-10-29-21-45,USA,Canton,GA,Formation,REDACTED,34.2367621,-84.490762
16-10-29-19-40,USA,Lake Charles,LA,Disk,REDACTED,30.2265949,-93.2173758
16-10-29-19-10,USA,San Diego,CA,Light,REDACTED,32.7174209,-117.1627713
16-10-29-18-55,USA,Racine,WI,Sphere,REDACTED,42.7260523,-87.7825241
16-10-29-10-30,USA,Rock Point,AZ,Disk,REDACTED,36.7170573,-109.6245141
16-10-29-06-00,USA,Sumner,MS,Light,REDACTED,47.19375545,-122.2358781
16-10-29-02-21,USA,Alvin,TX,Light,REDACTED,29.4238472,-95.2441008
16-10-28-21-37,USA,Virginia Beach,VA,Cigar,REDACTED,36.8529841,-75.9774182
16-10-28-19-30,USA,Jeromesville,OH,Flash,REDACTED,40.8042159,-82.1956858
16-10-28-19-00,USA,Springfield,IL,Circle,REDACTED,39.7989763,-89.6443687
16-10-28-15-00,USA,Cherryville,NC,Formation,REDACTED,35.3787442,-81.3789738
16-10-28-06-00,CANADA,Woodstock,ON,Light,REDACTED,43.133061,-80.7498549
16-10-28-04-30,USA,Florence,AZ,Circle,REDACTED,33.059919,-111.4303821
16-10-28-02-00,USA,Bowling Green,KY,Formation,REDACTED,36.9903199,-86.4436017
16-10-28-00-30,USA,Burnet,TX,Fireball,REDACTED,30.7573109,-98.2289006
16-10-27-23-45,USA,Walker,KS,Circle,REDACTED,38.8672339,-99.075927
16-10-27-23-45,USA,Ashland,NE,Sphere,REDACTED,41.0391711,-96.3683916
16-10-27-22-40,USA,Norman,OK,Teardrop,REDACTED,35.2225717,-97.4394815
16-10-27-22-00,USA,Topanga,CA,Circle,REDACTED,34.0908165,-118.5970195
16-10-27-21-30,USA,Bayonne,NJ,Cylinder,REDACTED,40.6687141,-74.114309
16-10-27-20-40,USA,Gardner,KS,Other,REDACTED,38.8109254,-94.9272957
16-10-27-20-30,USA,Edmond,OK,Other,REDACTED,35.6571367,-97.4649037
16-10-27-20-00,USA,Tucson,AZ,Other,REDACTED,32.2217422,-110.9264758
16-10-27-19-00,USA,Aurora,CO,Fireball,REDACTED,43.6963371,-98.572246
16-10-27-19-00,USA,Petal,MS,Other,REDACTED,31.3465627,-89.2600604
16-10-27-12-26,USA,Stillwater,OK,Teardrop,REDACTED,36.1156306,-97.0585716
16-10-27-10-00,USA,Asheboro,NC,Egg,REDACTED,35.7079146,-79.8136445
16-10-27-06-30,USA,Virgin,UT,Circle,REDACTED,37.201902,-113.1878541
16-10-26-23-30,USA,Knoxville,TN,Unknown,REDACTED,35.9603948,-83.921026
16-10-26-23-00,USA,Wilmington,CA,Light,REDACTED,33.780018,-118.262571
16-10-26-22-15,USA,Apache Junction,AZ,Light,REDACTED,33.4006195,-111.5374039
16-10-26-21-05,USA,San Jose,CA,Circle,REDACTED,37.3361905,-121.8905832
16-10-26-21-00,USA,Sonoma,CA,Circle,REDACTED,38.5110803,-122.8473387
16-10-26-20-35,USA,Schaghticoke,NY,Triangle,REDACTED,42.9000773,-73.5853938
16-10-26-20-20,USA,Denver,CO,Other,REDACTED,39.7348381,-104.965327
16-10-26-17-30,USA,Fort Worth,TX,Cigar,REDACTED,32.753177,-97.3327458
16-10-26-14-40,USA,Vallejo,CA,Teardrop,REDACTED,38.1040864,-122.2566366
16-10-26-14-12,USA,Ayden,NC,Disk,REDACTED,35.472663,-77.4155199
16-10-26-08-20,USA,Spring hill,FL,Circle,REDACTED,28.5558273,-82.4503731
16-10-26-07-00,USA,Creston,MT,Disk,REDACTED,48.1894036,-114.1373428
16-10-26-00-20,USA,Broad Brook,CT,Unknown,REDACTED,39.012363,-77.0961069
16-10-25-19-45,USA,Fairbanks,AK,Triangle,REDACTED,64.837845,-147.7166749
16-10-25-19-15,USA,Bethlehem,PA,Unknown,REDACTED,40.6178915,-75.378652
16-10-25-19-00,USA,Chandler,AZ,Unknown,REDACTED,33.3067132,-111.8408488
16-10-25-18-45,USA,Globe,AZ,Formation,REDACTED,33.3959511,-110.7871769
16-10-25-18-45,USA,Cary,NC,Triangle,REDACTED,35.7882973,-78.7811924
16-10-25-18-42,USA,San Tan Valley,AZ,Oval,REDACTED,33.1775233,-111.5478924
16-10-25-18-40,USA,Globe,AZ,Other,REDACTED,33.3959511,-110.7871769
16-10-25-18-40,USA,Florence,AZ,Light,REDACTED,33.059919,-111.4303821
16-10-25-18-40,USA,Chandler,AZ,Formation,REDACTED,33.3067132,-111.8408488
16-10-25-18-35,USA,San Tan Valley,AZ,Formation,REDACTED,33.1775233,-111.5478924
16-10-25-18-30,USA,Gilbert,AZ,Circle,REDACTED,33.294207,-111.7379465
16-10-25-18-30,USA,Mesa,AZ,Unknown,REDACTED,33.436188,-111.5860661
16-10-25-18-30,USA,Queen Creek,AZ,Light,REDACTED,33.222657,-111.6206973
16-10-25-16-00,USA,Great Smoky Mountains National Park,TN,Other,REDACTED,35.6078392,-83.5022466
16-10-25-15-45,USA,Atlanta,GA,Unknown,REDACTED,33.7490987,-84.3901848
16-10-25-11-00,USA,Newcastle,WA,Disk,REDACTED,47.5395736,-122.156333
16-10-25-07-45,USA,Winston-Salem,NC,Circle,REDACTED,36.0998131,-80.2440517
16-10-25-03-00,USA,Willow Grove,PA,Light,REDACTED,40.1439985,-75.1157285
16-10-24-23-30,USA,Deerfield Beach,FL,Light,REDACTED,26.318342,-80.0996305
16-10-24-23-00,USA,Port Hueneme,CA,Circle,REDACTED,34.1477829,-119.1951073
16-10-24-22-00,USA,Chalmette,LA,Triangle,REDACTED,29.9427892,-89.9629371
16-10-24-21-40,USA,Bay Saint Louis,MS,Triangle,REDACTED,30.3132823,-89.3343222
16-10-24-19-00,USA,Colonial Beach,VA,Light,REDACTED,38.2545799,-76.9635879
16-10-24-19-00,USA,Frankfort,IL,Formation,REDACTED,38.2009055,-84.8732835
16-10-24-17-30,USA,Chicago,IL,Diamond,REDACTED,41.8755546,-87.6244211
16-10-24-01-00,USA,Franklin,WI,Light,REDACTED,44.2127373,-91.123762
16-10-23-00-00,USA,Miami,FL,Circle,REDACTED,25.800431,-80.2632189
16-10-23-22-00,USA,Coachella Valley,CA,Circle,REDACTED,33.7666873,-116.3613659
16-10-23-21-35,USA,Shepherdsville,KY,Unknown,REDACTED,37.9883991,-85.7157923
16-10-23-21-30,USA,Middleburg,FL,Circle,REDACTED,30.0557025,-81.90363734
16-10-23-21-15,USA,Kannapolis,NC,Triangle,REDACTED,35.446138,-80.73685565
16-10-23-21-15,USA,Kannapolis,NC,Triangle,REDACTED,35.446138,-80.73685565
16-10-23-21-00,USA,Lansing,MI,Formation,REDACTED,42.7337712,-84.5553804
16-10-23-20-35,USA,Gulfport,MS,Circle,REDACTED,30.3674198,-89.0928154
16-10-23-20-00,USA,Pembroke Pines,FL,Unknown,REDACTED,26.02322025,-80.34123897
16-10-23-19-45,USA,Louisville,MS,Triangle,REDACTED,39.98402385,-105.133388
16-10-23-19-45,USA,Baltimore City,MD,Fireball,REDACTED,39.2559916,-76.6343409
16-10-23-18-30,USA,Honolulu,HI,Light,REDACTED,21.304547,-157.8556763
16-10-23-07-00,USA,Longwood,FL,Light,REDACTED,28.7007225,-81.34927787
16-10-23-06-30,USA,Dickerson,MD,Light,REDACTED,39.220104,-77.4241529
16-10-22-23-38,USA,Philadelphia,PA,Cigar,REDACTED,39.9523993,-75.1635898
16-10-22-23-20,USA,Trenton,MO,Sphere,REDACTED,40.0789018,-93.6166073
16-10-22-21-45,USA,North Topsail Beach,NC,Fireball,REDACTED,34.4901665,-77.4316299
16-10-22-21-27,USA,Madison,WI,Sphere,REDACTED,43.074761,-89.3837612
16-10-22-21-00,USA,Pickerington,OH,Light,REDACTED,39.8842304,-82.7535048
16-10-22-20-45,USA,Hutchinson,MN,Light,REDACTED,44.8877401,-94.3697056
16-10-22-20-40,USA,Nashville,TN,Diamond,REDACTED,36.1622296,-86.774353
16-10-22-20-10,USA,Winder,GA,Fireball,REDACTED,33.9926098,-83.7201709
16-10-22-20-00,USA,Alvord,TX,Triangle,REDACTED,33.353949,-97.69372387
16-10-22-20-00,USA,San Dimas,CA,Fireball,REDACTED,34.1066756,-117.8067256
16-10-22-20-00,USA,Jacksonville,FL,Light,REDACTED,30.3321838,-81.6556509
16-10-22-19-40,USA,Beaver Dam,WI,Other,REDACTED,43.4577692,-88.8373289
16-10-22-19-30,USA,Derby,KS,Light,REDACTED,37.5455735,-97.268933
16-10-22-18-15,USA,Moon,PA,Triangle,REDACTED,33.1584497,-86.2385845
16-10-22-18-00,USA,High Point,NC,Formation,REDACTED,35.9556924,-80.0053175
16-10-22-16-30,USA,Nashville,TN,Light,REDACTED,36.1622296,-86.774353
16-10-22-14-25,USA,Krum,TX,Disk,REDACTED,33.2618362,-97.2374667
16-10-22-13-50,USA,Shingle Springs,CA,Diamond,REDACTED,38.671727,-120.9402762
16-10-22-12-46,USA,Grand Rapids,MI,Unknown,REDACTED,42.9632405,-85.6678638
16-10-22-12-00,USA,Cutthroat Lake,WA,Circle,REDACTED,48.5403763,-120.68013
16-10-22-03-30,USA,Shawnee,OK,Circle,REDACTED,35.3272928,-96.9253003
16-10-22-02-32,USA,Lakeland,FL,Formation,REDACTED,28.0470698,-81.9539368
16-10-22-00-55,USA,Stevens Point,WI,Sphere,REDACTED,44.5229223,-89.5741109
16-10-21-23-50,USA,Phoenix,AZ,Other,REDACTED,33.4485866,-112.0773455
16-10-21-23-30,USA,Cullman,AL,Formation,REDACTED,33.508315,-86.8710359
16-10-21-23-22,USA,Sterling Heights,MI,Chevron,REDACTED,42.5803122,-83.0302032
16-10-21-23-00,USA,Forestville,MD,Light,REDACTED,38.845113,-76.8749719
16-10-21-22-40,USA,Springfield,MO,Triangle,REDACTED,37.2153307,-93.298252
16-10-21-22-15,USA,Elizabethtown,PA,Triangle,REDACTED,40.153364,-76.604252
16-10-21-21-00,USA,Auburn,CA,Triangle,REDACTED,38.8945939,-121.0739896
16-10-21-21-00,USA,Denver,CO,Other,REDACTED,39.7348381,-104.965327
16-10-21-18-30,USA,Brunswick,MD,Oval,REDACTED,39.3131621,-77.6281857
16-10-21-18-20,USA,Renton,WA,Disk,REDACTED,47.4799078,-122.2034495
16-10-21-16-00,USA,Johns Creek,GA,Sphere,REDACTED,34.0289259,-84.1985789
16-10-21-13-49,USA,La Puente,CA,Light,REDACTED,34.01979,-117.9503676
16-10-21-12-40,USA,Carrollton,TX,Sphere,REDACTED,32.9537349,-96.8902815
16-10-21-07-00,USA,Ypsilanti,MI,Triangle,REDACTED,42.2411499,-83.6129938
16-10-21-05-00,USA,Dover,NJ,Triangle,REDACTED,40.883988,-74.5621024
16-10-21-02-00,USA,Ilwaco,WA,Circle,REDACTED,46.309036,-124.0436639
16-10-21-01-45,USA,Newhall,CA,Triangle,REDACTED,34.3798765,-118.5291916
16-10-21-00-34,USA,Columbus,KS,Light,REDACTED,37.1692278,-94.8441238
16-10-20-22-00,USA,Fort Lupton,CO,Triangle,REDACTED,40.0847055,-104.8130274
16-10-20-21-56,USA,Lake Orion,MI,Fireball,REDACTED,42.7844752,-83.2396611
16-10-20-21-01,USA,Madison,WI,Unknown,REDACTED,43.074761,-89.3837612
16-10-20-21-00,USA,Park City,UT,Disk,REDACTED,40.6460635,-111.497974
16-10-20-21-00,USA,St. Joe,AR,Light,REDACTED,36.0300744,-92.8046117
16-10-20-20-45,USA,Stillwater,MN,Light,REDACTED,45.0564041,-92.8134981
16-10-20-20-35,USA,Wallace,NC,Circle,REDACTED,34.735724,-77.9952627
16-10-20-20-30,USA,Colorado Springs,CO,Unknown,REDACTED,38.8339578,-104.8253484
16-10-20-20-30,USA,Cayucos,CA,Light,REDACTED,35.4427512,-120.8921253
16-10-20-20-13,USA,Clarkson,KY,Teardrop,REDACTED,37.4953332,-86.2213613
16-10-20-20-10,USA,Copperas Cove,TX,Circle,REDACTED,31.124062,-97.9030784
16-10-20-20-00,USA,Playa Del Rey,CA,Other,REDACTED,33.9550828,-118.4367495
16-10-20-19-40,USA,Orlando,FL,Sphere,REDACTED,28.5479786,-81.41278409
16-10-20-19-35,USA,Alma,CO,Light,REDACTED,39.2839036,-106.0626173
16-10-20-19-00,USA,Pacific Palisades,CA,Unknown,REDACTED,34.0480643,-118.5264705
16-10-20-19-00,USA,Pinckney,MI,Light,REDACTED,42.4567013,-83.9463358
16-10-20-18-30,USA,Charlotte,NC,Light,REDACTED,35.2270869,-80.8431267
16-10-20-16-05,USA,Johns Creek,GA,Sphere,REDACTED,34.0289259,-84.1985789
16-10-20-09-00,USA,Park City,UT,Disk,REDACTED,40.6460635,-111.497974
16-10-20-06-00,USA,Harwinton,CT,Triangle,REDACTED,38.383233,-121.9836109
16-10-20-03-30,USA,Bowling Green,KY,Disk,REDACTED,36.9903199,-86.4436017
16-10-19-23-30,USA,Valrico,FL,Circle,REDACTED,27.9484265,-82.23621535
16-10-19-22-30,USA,Grovetown,GA,Circle,REDACTED,33.4504157,-82.1981763
16-10-19-22-00,USA,Gainseville,FL,Light,REDACTED,28.9713742,-82.4887545
16-10-19-21-30,USA,Dobson,NC,Unknown,REDACTED,36.3956891,-80.7225669
16-10-19-20-45,USA,Stow,MA,Other,REDACTED,42.4365949,-71.5050008
16-10-19-20-30,USA,Rawlins,WY,Light,REDACTED,32.85223,-116.9899219
16-10-19-20-00,USA,Waverly,OH,Light,REDACTED,39.126735,-82.9854552
16-10-19-20-00,USA,San Jose,CA,Light,REDACTED,37.3361905,-121.8905832
16-10-19-19-49,USA,Almont,CO,Light,REDACTED,38.6647149,-106.8461505
16-10-19-19-45,USA,Kuna,ID,Formation,REDACTED,43.4918307,-116.4201222
16-10-19-15-31,USA,Alvaton,KY,Teardrop,REDACTED,36.8733754,-86.3530455
16-10-19-10-04,USA,Blountville,TN,Oval,REDACTED,36.5331586,-82.3268059
16-10-19-07-35,USA,Everett,WA,Light,REDACTED,47.9673056,-122.2013997
16-10-19-06-16,USA,Ortonville,MI,Triangle,REDACTED,42.8522506,-83.4430001
16-10-19-01-30,USA,Nashville,TN,Triangle,REDACTED,36.1622296,-86.774353
16-10-19-01-06,USA,Yakima,WA,Light,REDACTED,46.5967275,-120.529656
16-10-18-23-16,USA,Wenatchee,WA,Formation,REDACTED,47.4234599,-120.3103493
16-10-18-23-00,USA,Tucson,AZ,Light,REDACTED,32.2217422,-110.9264758
16-10-18-21-20,USA,North Dartmouth,MA,Sphere,REDACTED,41.6389926,-70.970317
16-10-18-21-01,USA,Mountain Top,PA,Sphere,REDACTED,41.1695269,-75.8774189
16-10-18-21-00,USA,Marion,IA,Circle,REDACTED,42.0341658,-91.5976772
16-10-18-19-30,USA,Waynesboro,VA,Sphere,REDACTED,38.0652286,-78.90588756
16-10-18-19-00,USA,Roseville,CA,Light,REDACTED,38.72338,-121.1858782
16-10-18-19-00,USA,Franklin,TN,Light,REDACTED,35.925193,-86.8689364
16-10-18-19-00,USA,Tornado,WV,Cigar,REDACTED,38.3428719,-81.8442958
16-10-18-19-00,USA,Colorado Springs,CO,Circle,REDACTED,38.8339578,-104.8253484
16-10-18-18-15,USA,Oregon,IL,Light,REDACTED,43.9792797,-120.7372569
16-10-18-14-20,USA,Greenfield,WI,Disk,REDACTED,42.9614039,-88.0125864
16-10-18-12-20,USA,Edison,NJ,Oval,REDACTED,40.5382375,-74.39451725
16-10-18-05-35,USA,Tulsa,OK,Triangle,REDACTED,36.1556805,-95.9929112
16-10-18-01-00,USA,South Hadley,MA,Light,REDACTED,42.2584245,-72.5745331
16-10-18-00-18,USA,Fort Washington,MD,Other,REDACTED,38.7125305,-77.0124597
16-10-18-00-00,USA,Augusta,GA,Circle,REDACTED,33.4709714,-81.9748428
16-10-17-22-00,USA,Jacksonville,AR,Light,REDACTED,34.8662005,-92.1101457
16-10-17-21-30,USA,Baltimore,MD,Light,REDACTED,39.2908816,-76.6107589
16-10-17-20-49,USA,Melbourne,FL,Light,REDACTED,28.0836269,-80.6081088
16-10-17-20-37,USA,Orem,UT,Light,REDACTED,40.2975185,-111.6944684
16-10-17-19-50,USA,Lakewood,CO,Triangle,REDACTED,39.6311085,-105.1100581
16-10-17-19-50,USA,Virginia Beach,VA,Fireball,REDACTED,36.8529841,-75.9774182
16-10-17-19-45,USA,Chicago,IL,Light,REDACTED,41.8755546,-87.6244211
16-10-17-19-30,USA,Winston-Salem,NC,Other,REDACTED,36.0998131,-80.2440517
16-10-17-19-30,USA,Bybee,TN,Triangle,REDACTED,36.0481521,-83.1793267
16-10-17-19-21,USA,Madison,IL,Circle,REDACTED,38.811063,-89.9017111
16-10-17-19-00,USA,South Orange,NJ,Sphere,REDACTED,40.7474966,-74.2635375
16-10-17-19-00,USA,Taylorville,IL,Circle,REDACTED,39.548935,-89.2945329
16-10-17-15-00,USA,High Point,NC,Cone,REDACTED,35.9556924,-80.0053175
16-10-17-10-35,USA,Loganville,GA,Diamond,REDACTED,33.8389977,-83.9007381
16-10-17-07-30,USA,Key Biscayne,FL,Sphere,REDACTED,25.6968351,-80.163526
16-10-17-07-00,USA,La Habra,CA,Changing,REDACTED,33.9318775,-117.9461073
16-10-17-05-45,USA,Clearwater,FL,Circle,REDACTED,27.9658533,-82.8001025
16-10-17-05-35,USA,Jacksonville,FL,Unknown,REDACTED,30.3321838,-81.6556509
16-10-17-01-36,USA,Colorado Springs,CO,Triangle,REDACTED,38.8339578,-104.8253484
16-10-16-21-31,USA,Mansfield,TX,Light,REDACTED,32.5631924,-97.1416767
16-10-16-19-50,USA,Golden Valley,AZ,Circle,REDACTED,35.2216745,-114.2175542
16-10-16-19-35,USA,South Kingstown,RI,Light,REDACTED,41.456191,-71.5394737
16-10-16-19-00,USA,Lexington,SC,Fireball,REDACTED,33.9815369,-81.2362106
16-10-16-18-30,USA,Johnson City,TN,Triangle,REDACTED,36.3134398,-82.3534727
16-10-16-13-30,USA,Bonner Springs,KS,Triangle,REDACTED,39.059726,-94.8835753
16-10-16-12-45,USA,Tucson,AZ,Rectangle,REDACTED,32.2217422,-110.9264758
16-10-16-05-40,USA,South Tampa,FL,Light,REDACTED,27.9491217,-82.3546171
16-10-16-02-16,USA,Encinitas,CA,Circle,REDACTED,33.0369867,-117.2919817
16-10-15-23-15,USA,Philadelphia,PA,Sphere,REDACTED,39.9523993,-75.1635898
16-10-15-23-00,USA,Nashua,NH,Formation,REDACTED,42.7653662,-71.4675659
16-10-15-22-30,USA,St. Paul,MN,Circle,REDACTED,44.9504037,-93.1015025
16-10-15-22-00,USA,Florissant,MO,Fireball,REDACTED,38.789217,-90.3226139
16-10-15-20-20,USA,Madison,OH,Light,REDACTED,39.8868227,-83.3937232
16-10-15-20-15,USA,Anacoco,LA,Fireball,REDACTED,31.2521279,-93.3412794
16-10-15-20-00,USA,Lakewood,CO,Cross,REDACTED,39.6311085,-105.1100581
16-10-15-19-40,USA,Nashua,NH,Circle,REDACTED,42.7653662,-71.4675659
16-10-15-19-30,USA,Aliquippa,PA,Light,REDACTED,40.6102386,-80.2677259
16-10-15-19-00,USA,Greenfield,IN,Triangle,REDACTED,39.7855096,-85.7681978
16-10-15-18-03,USA,Prescott,AZ,Unknown,REDACTED,34.5402813,-112.4695072
16-10-15-18-00,USA,Idaho Falls,ID,Triangle,REDACTED,43.4935245,-112.0400918
16-10-15-17-00,USA,Houston,TX,Diamond,REDACTED,29.675779,-95.40215851
16-10-15-15-30,USA,Arvada,CO,Chevron,REDACTED,39.8211225,-105.2207429
16-10-15-13-30,USA,Valle Vista,CA,Disk,REDACTED,33.754125,-116.8926903
16-10-15-12-00,USA,Detroit,MI,Sphere,REDACTED,42.3486635,-83.0567374
16-10-15-02-30,USA,Aiken,SC,Sphere,REDACTED,33.5598586,-81.7219519
16-10-15-02-00,USA,Clarksdale,MS,Circle,REDACTED,34.194945,-90.57478338
16-10-15-00-00,USA,Waterbury,CT,Triangle,REDACTED,39.7337385,-82.6371202
16-10-14-23-45,USA,Centerburg,OH,Triangle,REDACTED,40.3045067,-82.6962828
16-10-14-22-00,USA,St. Peters,MO,Other,REDACTED,38.8010514,-90.6278809
16-10-14-18-30,USA,Queens,NY,Teardrop,REDACTED,40.6524927,-73.79142132
16-10-14-18-00,USA,Lithia,FL,Circle,REDACTED,27.8651063,-82.22687485
16-10-14-17-48,USA,Bend,OR,Circle,REDACTED,44.0581728,-121.3153095
16-10-14-17-00,USA,Albion,IN,Oval,REDACTED,39.2235117,-123.768625
16-10-14-11-00,USA,Brooklyn,NY,Diamond,REDACTED,40.64530975,-73.95502293
16-10-14-10-40,USA,New York City,NY,Light,REDACTED,40.7305991,-73.9865811
16-10-14-03-45,USA,Middletown,NY,Unknown,REDACTED,41.4459271,-74.422934
16-10-14-03-00,USA,Charlotte,NC,Circle,REDACTED,35.2270869,-80.8431267
16-10-13-22-00,USA,Parker,AZ,Sphere,REDACTED,34.1500162,-114.2891176
16-10-13-21-30,USA,Gilford,NH,Light,REDACTED,43.54805,-71.4070129
16-10-13-21-00,USA,Newfoundland,PA,Light,REDACTED,41.3073102,-75.3199034
16-10-13-20-36,USA,San Antonio,TX,Diamond,REDACTED,29.4246002,-98.4951404
16-10-13-20-30,USA,Socorro,NM,Light,REDACTED,34.0572791,-106.8930517
16-10-13-19-00,USA,Spearhead Point Campground,WI,Sphere,REDACTED,45.3276208,-90.44545755
16-10-13-19-00,USA,Ocean Springs,MS,Light,REDACTED,30.39642845,-88.75605487
16-10-13-19-00,USA,Bowdoinham,ME,Diamond,REDACTED,44.067523,-70.0543789
16-10-13-17-00,USA,Houston,TX,Diamond,REDACTED,29.675779,-95.40215851
16-10-13-09-45,USA,Gulfport,MS,Other,REDACTED,30.3674198,-89.0928154
16-10-13-07-30,USA,Riverton,UT,Light,REDACTED,40.521893,-111.9391022
16-10-13-07-00,CANADA,Ottawa,ON,Light,REDACTED,45.4210328,-75.6900218
16-12-10-20-35,USA,Douglasville,GA,Circle,REDACTED,33.7514966,-84.7477135
16-12-10-20-35,USA,Douglasville,GA,Circle,REDACTED,33.7514966,-84.7477135
16-12-10-11-49,USA,Gatlinburg,TN,Triangle,REDACTED,35.714259,-83.5101637
16-12-10-11-45,USA,Middletown,CT,Triangle,REDACTED,37.2778355,-121.9696599
16-12-10-07-25,USA,Columbia,SC,Light,REDACTED,34.0007493,-81.0343312
16-12-10-06-50,USA,Odenville,AL,Light,REDACTED,33.6773237,-86.396648
16-12-10-06-00,USA,Gulf of Mexico,LA,Oval,REDACTED,35.5428819,-108.3001218
16-11-10-23-10,USA,Hayti,MO,Disk,REDACTED,36.233679,-89.7495271
16-11-10-23-00,USA,Prospect,KY,Rectangle,REDACTED,38.345068,-85.6155169
16-11-10-22-15,USA,Mountainair,NM,Formation,REDACTED,34.5203411,-106.2411269
16-11-10-22-00,USA,Lake of the Ozarks,MO,Fireball,REDACTED,38.2035967,-92.6266765
16-11-10-21-07,USA,Gates,NC,Triangle,REDACTED,36.4412509,-76.6944132
16-11-10-21-00,USA,Dallas,GA,Fireball,REDACTED,33.9237141,-84.8407731
16-11-10-19-30,USA,Granbury,TX,Cone,REDACTED,32.4420826,-97.7941966
16-11-10-19-25,USA,San Diego,CA,Light,REDACTED,32.7174209,-117.1627713
16-11-10-19-25,USA,San Diego,CA,Light,REDACTED,32.7174209,-117.1627713
16-11-10-16-34,USA,Lido Beach,NY,Circle,REDACTED,40.5857635,-73.60997075
16-11-10-13-35,USA,Ocean Shores,WA,Circle,REDACTED,46.973703,-124.1562769
16-11-10-12-21,USA,Oklahoma City,OK,Circle,REDACTED,35.4729886,-97.5170535
16-11-10-10-10,USA,University Place,WA,Changing,REDACTED,47.216134,-122.5400829
16-11-10-04-00,USA,Vestal,NY,Diamond,REDACTED,42.0850747,-76.0538129
16-11-10-02-30,USA,Cromwell,CT,Light,REDACTED,41.2861336,-72.3557585
16-10-10-21-30,USA,Norwood,MA,Teardrop,REDACTED,42.194543,-71.1994975
16-10-10-20-00,USA,Astoria,OR,Circle,REDACTED,46.187885,-123.8312559
16-10-10-19-17,USA,Elizabethtown,PA,Fireball,REDACTED,40.153364,-76.604252
16-10-10-19-17,USA,Elizabethtown,PA,Fireball,REDACTED,40.153364,-76.604252
16-10-10-19-00,USA,Yosemite National Park,CA,Disk,REDACTED,37.84054795,-119.5165877
16-10-10-19-00,USA,Greensboro,NC,Fireball,REDACTED,36.0726355,-79.7919753
16-10-10-15-35,USA,Vicksburg,MI,Sphere,REDACTED,32.3528418,-90.8777341
16-10-10-13-56,USA,Columbia,MD,Disk,REDACTED,39.2156213,-76.8582048
16-10-10-13-30,CANADA,Edmonton,AB,Sphere,REDACTED,53.5343609,-113.5065084
16-10-10-09-40,USA,Austin,TX,Unknown,REDACTED,30.2711286,-97.7436994
16-10-10-05-00,USA,Kerrville,TX,Triangle,REDACTED,30.0474332,-99.1403188
16-10-10-01-20,USA,Lovell,WY,Triangle,REDACTED,37.801771,-121.1935299
16-09-10-00-00,USA,Morrison,CO,Unknown,REDACTED,45.9926837,-94.2554657
16-09-10-23-20,USA,Harrison City,PA,Formation,REDACTED,40.3551215,-79.64993944
16-09-10-21-00,CANADA,Port Clements,BC,Other,REDACTED,53.6870871,-132.1808315
16-09-10-21-00,CANADA,Langley,BC,Light,REDACTED,49.1204123,-122.6598956
16-09-10-20-37,CANADA,Prince Rupert,BC,Other,REDACTED,54.312617,-130.3255344
16-09-10-19-35,USA,Goleta,CA,Triangle,REDACTED,34.4358295,-119.8276388
16-09-10-18-20,USA,Aurora,IL,Light,REDACTED,41.7605849,-88.3200714
16-09-10-18-17,USA,Yucaipa,CA,Cone,REDACTED,34.040931,-117.0516713
16-09-10-18-00,USA,Brooklyn,NY,Sphere,REDACTED,40.64530975,-73.95502293
16-09-10-16-30,USA,Madison Heights,MI,Circle,REDACTED,42.4858692,-83.1052027
16-09-10-10-30,USA,Marietta,GA,Cigar,REDACTED,33.9528472,-84.5496147
16-09-10-09-00,USA,Cape coral,FL,Circle,REDACTED,26.6058996,-81.9807339
16-09-10-04-00,USA,Orlando,FL,Other,REDACTED,28.5479786,-81.41278409
16-09-10-03-30,USA,Fort Lauderdale,FL,Other,REDACTED,26.1254381,-80.1381514
16-09-10-01-05,USA,McKinney,TX,Light,REDACTED,33.1976496,-96.615447
16-09-10-00-00,USA,Mt. Airy,MD,Egg,REDACTED,39.3762145,-77.1547039
16-08-10-23-30,USA,Burbank,CA,Fireball,REDACTED,34.1816482,-118.3258553
16-08-10-23-20,USA,Illiopolis,IL,Triangle,REDACTED,39.8536535,-89.242029
16-08-10-23-00,USA,Hamilton,OH,Rectangle,REDACTED,39.2085354,-84.5501873
16-08-10-22-30,USA,Owenton,KY,Light,REDACTED,38.536456,-84.8418925
16-08-10-22-00,USA,Birmingham,AL,Triangle,REDACTED,33.570499,-86.7657829
16-08-10-21-30,USA,Harrison,AR,Circle,REDACTED,36.2297936,-93.1076764
16-08-10-20-56,USA,Marietta,OH,Light,REDACTED,39.4167742,-81.4548391
16-08-10-20-45,USA,Marietta,OH,Changing,REDACTED,39.4167742,-81.4548391
16-08-10-20-35,USA,Warren,MI,Chevron,REDACTED,42.4775364,-83.0277
16-08-10-20-15,USA,Murfreesboro,TN,Changing,REDACTED,35.9155165,-86.44469333
16-08-10-20-10,USA,Bellevue,NE,Oval,REDACTED,41.1366494,-95.8907372
16-08-10-20-00,USA,Marietta,OH,Chevron,REDACTED,39.4167742,-81.4548391
16-08-10-20-00,USA,Cincinnati,OH,Light,REDACTED,39.1014537,-84.5124601
16-08-10-19-47,USA,Chicago,IL,Oval,REDACTED,41.8755546,-87.6244211
16-08-10-18-45,USA,Middlefield,CT,Light,REDACTED,41.717613,-81.2086884
16-08-10-17-24,USA,Darby,MT,Disk,REDACTED,46.022659,-114.1780929
16-08-10-12-54,USA,Slidell,LA,Rectangle,REDACTED,30.2751945,-89.7811744
16-08-10-11-15,USA,Champaign,IL,Rectangle,REDACTED,40.1164205,-88.2433828
16-08-10-10-17,USA,Coweta,OK,Unknown,REDACTED,35.9517674,-95.6508139
16-08-10-03-00,USA,Crandall,GA,Light,REDACTED,34.8667459,-84.7454938
16-08-10-02-20,CANADA,Strathmore,AB,Other,REDACTED,51.0435486,-113.3998478
16-08-10-02-15,USA,Van Buren,AR,Circle,REDACTED,35.44572,-94.35182238
16-08-10-01-00,USA,Renton,WA,Fireball,REDACTED,47.4799078,-122.2034495
16-08-10-00-00,USA,Cochise County,AZ,Flash,REDACTED,31.8514532,-109.8181857
16-08-10-00-00,USA,Crown Point,IN,Disk,REDACTED,41.4169806,-87.3653135
16-07-10-22-00,USA,Anchor Point,AK,Flash,REDACTED,59.76826,-151.6775519
16-07-10-21-45,USA,Gardner,MA,Light,REDACTED,42.5750883,-71.9981329
16-07-10-21-30,USA,South Gardner,MA,Fireball,REDACTED,42.558422,-71.9786879
16-07-10-21-15,USA,New Ipswich,NH,Oval,REDACTED,42.7481421,-71.8542428
16-07-10-21-05,USA,Arvada,CO,Other,REDACTED,39.8211225,-105.2207429
16-07-10-21-00,USA,Secaucus,NJ,Light,REDACTED,40.7899291,-74.0566734
16-07-10-20-45,USA,Bucks Lake,CA,Formation,REDACTED,39.8796775,-121.1486096
16-07-10-19-30,USA,Manchester,VT,Triangle,REDACTED,43.164121,-73.0728149
16-07-10-13-40,USA,Eureka,CA,Disk,REDACTED,40.8020712,-124.1636728
16-07-10-13-00,USA,Douglasville,GA,Cylinder,REDACTED,33.7514966,-84.7477135
16-07-10-07-00,USA,Meadville,PA,Circle,REDACTED,41.641445,-80.1514489
16-07-10-03-30,USA,Long Beach,CA,Light,REDACTED,33.78538945,-118.1580492
16-07-10-01-00,USA,Kettering,OH,Light,REDACTED,39.6895036,-84.1688273
16-07-10-00-05,USA,Las Cruces,NM,Other,REDACTED,32.3140354,-106.7798077
16-07-10-00-00,USA,Foley,AL,Unknown,REDACTED,30.4065868,-87.6835973
16-07-10-00-00,USA,Highway I-40 Truck parking,AR,Unknown,REDACTED,35.0840313,-92.4174169
16-06-10-00-00,USA,Columbus,OH,Triangle,REDACTED,39.9622601,-83.0007064
16-06-10-23-00,USA,Antlers,OK,Light,REDACTED,34.231212,-95.6202475
16-06-10-21-50,USA,Union,NJ,Oval,REDACTED,40.6652251,-74.3045276
16-06-10-21-00,USA,Whitefish,MT,Fireball,REDACTED,48.4107966,-114.3346264
16-06-10-20-24,USA,El Cajon,CA,Unknown,REDACTED,32.7947731,-116.9625268
16-06-10-20-00,USA,Saylorsburg,PA,Fireball,REDACTED,40.8952667,-75.3233922
16-06-10-20-00,USA,Lower Burrell,PA,Triangle,REDACTED,40.5882821,-79.7298186
16-06-10-14-30,USA,Columbus,GA,Circle,REDACTED,32.4609764,-84.9877093
16-06-10-09-15,USA,South Berwick,ME,Light,REDACTED,43.2345292,-70.8095017
16-06-10-05-45,USA,Torrington,CT,Triangle,REDACTED,37.5800421,-122.0353035
16-06-10-04-00,USA,Grandview,WA,Circle,REDACTED,46.2509653,-119.9017048
16-06-10-01-07,CANADA,Ottawa,ON,Flash,REDACTED,45.4210328,-75.6900218
16-06-10-00-00,USA,Slate Hill,NY,Sphere,REDACTED,41.3909274,-74.476547
16-05-10-00-00,USA,Poland,ME,Sphere,REDACTED,44.060946,-70.3942109
16-05-10-22-35,USA,Lake Elmo,MN,Circle,REDACTED,44.9957998,-92.8793767
16-05-10-22-30,USA,Howell,NJ,Cigar,REDACTED,40.1659101,-74.1911587
16-05-10-22-20,USA,Ticonderoga,NY,Rectangle,REDACTED,43.848889,-73.4233469
16-05-10-21-25,USA,Port Richey,FL,Disk,REDACTED,28.2716755,-82.719545
16-05-10-20-00,USA,Florence,AL,Diamond,REDACTED,29.425683,-98.4674859
16-05-10-20-00,USA,Destin,FL,Chevron,REDACTED,30.3935337,-86.4957833
16-05-10-19-50,USA,Orem,UT,Circle,REDACTED,40.2975185,-111.6944684
16-05-10-10-00,USA,Greenfield,OH,Cigar,REDACTED,39.3520084,-83.3826927
16-04-10-23-15,USA,Williamsport,PA,Flash,REDACTED,41.2493292,-77.002767
16-04-10-22-46,USA,Fort Washington,MD,Fireball,REDACTED,38.7125305,-77.0124597
16-04-10-22-37,USA,Boonsboro,MD,Fireball,REDACTED,39.5061332,-77.6524249
16-04-10-22-35,USA,Hilton,NY,Circle,REDACTED,43.288116,-77.7933419
16-04-10-22-16,USA,Hanover,MI,Fireball,REDACTED,39.8063247,-76.9842734
16-04-10-21-26,USA,Wappingers Falls,NY,Light,REDACTED,41.5965635,-73.9112102
16-04-10-20-00,USA,Frederica,DE,Disk,REDACTED,39.0090017,-75.4657541
16-04-10-19-30,USA,Brentwood,NH,Circle,REDACTED,42.9786981,-71.0728368
16-04-10-18-15,USA,Fairbanks,AK,Unknown,REDACTED,64.837845,-147.7166749
16-04-10-04-00,USA,Branson,MO,Light,REDACTED,36.6440399,-93.2171329
16-04-10-00-25,USA,Carrboro,NC,Sphere,REDACTED,35.9101438,-79.0752894
16-03-10-20-30,USA,North Vernon,IN,Other,REDACTED,39.006165,-85.6235795
16-03-10-20-00,USA,Laurel,DE,Formation,REDACTED,38.5565041,-75.571314
16-03-10-18-00,USA,Ellsworth,ME,Sphere,REDACTED,44.543505,-68.4201049
16-03-10-18-00,USA,Ellsworth,ME,Triangle,REDACTED,44.543505,-68.4201049
16-03-10-17-00,USA,Saginaw,MN,Rectangle,REDACTED,46.8591081,-92.4443565
16-03-10-14-25,USA,Coshocton,OH,Other,REDACTED,40.2905684,-81.927144
16-03-10-07-25,USA,Millington,TN,Disk,REDACTED,35.3414745,-89.8973083
16-03-10-05-00,USA,Belchertown,MA,Fireball,REDACTED,42.2722584,-72.39441289
16-03-10-04-00,USA,Adairsville,GA,Circle,REDACTED,34.3687021,-84.9341092
16-03-10-03-00,USA,Long Beach,CA,Light,REDACTED,33.78538945,-118.1580492
16-02-10-22-45,USA,Kettering,OH,Unknown,REDACTED,39.6895036,-84.1688273
16-02-10-22-00,USA,Sioux Falls,SD,Disk,REDACTED,43.5499749,-96.7003269
16-02-10-21-00,USA,Des Moines,IA,Light,REDACTED,41.5910641,-93.6037148
16-02-10-20-45,USA,Murphy,TX,Rectangle,REDACTED,33.0151208,-96.6130477
16-02-10-19-45,USA,Bristol,TN,Cone,REDACTED,36.5945034,-82.1885211
16-02-10-17-45,CANADA,Regina,SK,Disk,REDACTED,50.4480951,-104.615818
16-02-10-11-00,USA,Washington D.C.,MD,Other,REDACTED,38.899265,-77.1546512
16-02-10-10-44,USA,Reno,NV,Unknown,REDACTED,39.52927,-119.8136743
16-02-10-04-50,USA,Watsonville,CA,Unknown,REDACTED,36.9092773,-121.752907
16-02-10-04-30,USA,Houston,TX,Circle,REDACTED,29.675779,-95.40215851
16-02-10-02-00,USA,Woodruff,SC,Light,REDACTED,34.7395701,-82.0370465
16-02-10-01-30,CANADA,Winnipeg,MB,Light,REDACTED,49.8833343,-97.166674
16-02-10-01-11,USA,Lynnwood,WA,Other,REDACTED,47.8278656,-122.3053931
16-02-10-00-45,USA,Iowa City,IA,Light,REDACTED,41.6612561,-91.5299105
16-02-10-00-30,USA,Mena,AR,Other,REDACTED,34.5862171,-94.2396553
16-02-10-00-14,USA,Waverly,TN,Oval,REDACTED,36.0829998,-87.7945851
16-01-10-00-00,USA,Santa Rosa Beach,FL,Teardrop,REDACTED,30.3960324,-86.2288321
16-01-10-22-20,USA,North Mankato,MN,Chevron,REDACTED,44.1732996,-94.033845
16-01-10-22-15,USA,Long Island,NY,Fireball,REDACTED,40.8517821,-73.09918527
16-01-10-22-00,USA,Laona,WI,Unknown,REDACTED,45.560864,-88.6724569
16-01-10-22-00,USA,Whiting,IN,Circle,REDACTED,41.6797578,-87.4944872
16-01-10-22-00,USA,Central,LA,Fireball,REDACTED,34.2248222,-87.0091741
16-01-10-22-00,USA,Bend,OR,Light,REDACTED,44.0581728,-121.3153095
16-01-10-22-00,USA,Kenner,LA,Circle,REDACTED,29.9942265,-90.2417805
16-01-10-21-45,USA,Irvine,CA,Fireball,REDACTED,33.6856969,-117.8259818
16-01-10-21-30,USA,Monetta,SC,Other,REDACTED,33.8501416,-81.6095492
16-01-10-21-00,USA,Yukon,OK,Flash,REDACTED,35.5067259,-97.7625385
16-01-10-20-48,USA,Bucksport,ME,Chevron,REDACTED,44.5736852,-68.7955878
16-01-10-20-43,USA,Chula Vista,CA,Triangle,REDACTED,32.6400541,-117.0841954
16-01-10-20-41,USA,Plano,TX,Light,REDACTED,33.0136764,-96.6925095
16-01-10-20-35,USA,San Jose,CA,Teardrop,REDACTED,37.3361905,-121.8905832
16-01-10-20-35,USA,Millsap,TX,Disk,REDACTED,32.7481864,-98.0092092
16-01-10-20-30,USA,Candor,NC,Cylinder,REDACTED,35.2951421,-79.7453163
16-01-10-20-10,USA,Havre de Grace,MD,Circle,REDACTED,39.5489964,-76.0914717
16-01-10-20-00,USA,Graham,WA,Light,REDACTED,47.0395996,-122.2785728
16-01-10-20-00,USA,High Ridge,MO,Oval,REDACTED,38.4589432,-90.5365125
16-01-10-19-45,USA,Grand Blanc,MI,Light,REDACTED,42.9275277,-83.6299517
16-01-10-19-45,USA,Denver,CO,Formation,REDACTED,39.7348381,-104.965327
16-01-10-19-30,USA,Glenrock,WY,Disk,REDACTED,35.342101,-119.0727129
16-01-10-19-30,USA,Tampa,FL,Light,REDACTED,27.9518491,-82.4563971
16-01-10-19-30,USA,Phoenix,AZ,Other,REDACTED,33.4485866,-112.0773455
16-01-10-19-00,USA,Boulder,CO,Triangle,REDACTED,40.102555,-105.3632078
16-01-10-19-00,USA,Sullivan,IL,Fireball,REDACTED,41.7156311,-74.7804322
16-01-10-18-15,USA,Fernley,NV,Cylinder,REDACTED,39.5483805,-119.2144685
16-01-10-16-20,USA,West Park,PA,Triangle,REDACTED,40.4742354,-80.0775554
16-01-10-14-50,USA,Orlando,FL,Triangle,REDACTED,28.5479786,-81.41278409
16-01-10-12-01,USA,Madera,CA,Unknown,REDACTED,37.1716264,-119.773799
16-01-10-09-15,USA,Geneva,NY,Flash,REDACTED,42.8689552,-76.9777435
16-01-10-08-33,USA,Lemitar,NM,Fireball,REDACTED,34.1597887,-106.910306
16-01-10-08-00,USA,Blue Ridge,GA,Other,REDACTED,34.863972,-84.3240869
16-01-10-06-00,USA,Recluse,WY,Light,REDACTED,44.7411124,-105.7080576
16-01-10-05-30,USA,Ferndale,WA,Light,REDACTED,48.8466698,-122.5897234
16-01-10-05-30,USA,Kenner,LA,Circle,REDACTED,29.9942265,-90.2417805
16-01-10-03-30,USA,St. Augustine,FL,Light,REDACTED,29.8946952,-81.3145394
16-01-10-02-00,USA,Minneapolis,MN,Changing,REDACTED,44.9772995,-93.2654691
16-09-30-23-22,USA,Naples,FL,Changing,REDACTED,26.1420358,-81.7948102
16-09-30-23-15,USA,Marlton,NJ,Unknown,REDACTED,39.8912248,-74.9218324
16-09-30-21-34,USA,Honolulu,HI,Rectangle,REDACTED,21.304547,-157.8556763
16-09-30-21-00,USA,Mooresville,NC,Sphere,REDACTED,35.5848596,-80.8100723
16-09-30-20-45,CANADA,Sault Ste. Marie,ON,Circle,REDACTED,46.52391,-84.3200679
16-09-30-20-30,USA,Arvada,CO,Formation,REDACTED,39.8211225,-105.2207429
16-09-30-20-00,USA,Pittsfield,ME,Light,REDACTED,44.78281,-69.3834689
16-09-30-19-30,USA,Oxnard,CA,Unknown,REDACTED,34.1976308,-119.1803817
16-09-30-19-10,USA,Eastvale,CA,Light,REDACTED,33.9766799,-117.5598443
16-09-30-19-00,USA,Cape Coral,FL,Other,REDACTED,26.6058996,-81.9807339
16-09-30-15-30,USA,Las Vegas,NV,Oval,REDACTED,36.1662859,-115.1492249
16-09-30-07-10,USA,Weiser,ID,Light,REDACTED,44.2509976,-116.9693326
16-09-29-23-30,USA,Sanborn,NY,Oval,REDACTED,43.136723,-78.884761
16-09-29-22-10,USA,Phenix City,AL,Egg,REDACTED,32.4709761,-85.0007652
16-09-29-22-00,USA,Logan,KS,Light,REDACTED,38.9058216,-101.155238
16-09-29-21-00,USA,Kennewick,WA,Unknown,REDACTED,46.2112458,-119.1372337
16-09-29-21-00,USA,North Sioux City,SD,Light,REDACTED,42.5272168,-96.4830863
16-09-29-20-00,USA,Fresno,CA,Light,REDACTED,36.7295295,-119.7088612
16-09-29-19-16,USA,Marietta,GA,Cylinder,REDACTED,33.9528472,-84.5496147
16-09-29-19-15,USA,Marietta,GA,Changing,REDACTED,33.9528472,-84.5496147
16-09-29-11-45,USA,Idyllwild,CA,Circle,REDACTED,33.7400209,-116.7189074
16-09-29-09-00,USA,Canby,OR,Rectangle,REDACTED,45.2629088,-122.6925982
16-09-29-02-30,USA,Tampa,FL,Flash,REDACTED,27.9518491,-82.4563971
16-09-29-00-00,USA,Lake Charles,LA,Oval,REDACTED,30.2265949,-93.2173758
16-09-28-23-00,USA,Overland Park,KS,Fireball,REDACTED,38.9822282,-94.6707916
16-09-28-22-00,USA,Boulder,CO,Triangle,REDACTED,40.102555,-105.3632078
16-09-28-21-02,USA,Delano,CA,Other,REDACTED,35.7688425,-119.2470535
16-09-28-21-00,USA,Rexburg,ID,Triangle,REDACTED,43.8235163,-111.7870221
16-09-28-21-00,CANADA,Ottawa,ON,Triangle,REDACTED,45.4210328,-75.6900218
16-09-28-21-00,USA,Black Mountain,NC,Unknown,REDACTED,35.6178951,-82.3212301
16-09-28-20-44,USA,Louisville,KY,Sphere,REDACTED,38.2542376,-85.7594069
16-09-28-20-16,USA,Aurora,CO,Light,REDACTED,43.6963371,-98.572246
16-09-28-20-16,USA,Aurora,CO,Circle,REDACTED,43.6963371,-98.572246
16-09-28-19-50,USA,Beaverton,OR,Disk,REDACTED,45.4871723,-122.8037803
16-09-28-14-30,USA,Littleton,CO,Diamond,REDACTED,39.613321,-105.0166497
16-09-28-13-59,USA,Dell Rapids,SD,Flash,REDACTED,43.826084,-96.7061609
16-09-28-03-00,USA,Grand Rapids,MI,Sphere,REDACTED,42.9632405,-85.6678638
16-09-27-22-30,USA,Redmond,OR,Unknown,REDACTED,44.2726203,-121.1739211
16-09-27-22-00,USA,Warner Robins,GA,Light,REDACTED,32.598313,-83.62567691
16-09-27-22-00,USA,Penfield,NY,Rectangle,REDACTED,43.1303407,-77.4755509
16-09-27-21-30,USA,Spokane,WA,Unknown,REDACTED,47.6588603,-117.4247133
16-09-27-21-30,USA,Keizer,OR,Formation,REDACTED,44.9958075,-123.0197172
16-09-27-21-21,USA,Hoquiam,WA,Circle,REDACTED,46.980929,-123.8893349
16-09-27-21-00,USA,Claremont,CA,Flash,REDACTED,34.0966764,-117.7197784
16-09-27-21-00,USA,St. Louis,MO,Flash,REDACTED,38.6272733,-90.1978888
16-09-27-21-00,USA,El Monte,CA,Circle,REDACTED,34.0751571,-118.0368489
16-09-27-20-50,USA,Missoula,MT,Fireball,REDACTED,46.8700801,-113.9952795
16-09-27-20-30,USA,New Britain,CT,Circle,REDACTED,41.6804665,-72.822161
16-09-27-20-15,USA,West pittston,PA,Circle,REDACTED,41.3279106,-75.8007111
16-09-27-19-50,USA,Beaverton,OR,Disk,REDACTED,45.4871723,-122.8037803
16-09-27-18-30,USA,Somerville,NJ,Formation,REDACTED,40.5742696,-74.6098799
16-09-27-17-15,USA,Centennial,CO,Circle,REDACTED,39.5680644,-104.9778307
16-09-27-15-10,USA,Amarillo,TX,Teardrop,REDACTED,35.2072185,-101.8338245
16-09-27-13-10,USA,Monterey,CA,Disk,REDACTED,36.600256,-121.8946387
16-09-27-10-30,USA,Bernville,PA,Triangle,REDACTED,40.433426,-76.1121647
16-09-27-06-50,USA,Navarre,OH,Light,REDACTED,40.7248607,-81.5218426
16-09-27-05-30,USA,Newport,AR,Light,REDACTED,35.6048018,-91.281795
16-09-27-04-45,USA,Moss Point,MS,Light,REDACTED,30.4115881,-88.53446
16-09-27-03-00,USA,Palm Beach Gardens,FL,Light,REDACTED,26.84176195,-80.13530871
16-09-27-01-45,USA,Lathrop,MO,Unknown,REDACTED,39.5483354,-94.329946
16-09-27-01-42,USA,Roseville,CA,Changing,REDACTED,38.72338,-121.1858782
16-09-27-01-30,USA,North Pole,AK,Unknown,REDACTED,64.750922,-147.349312
16-09-27-01-00,USA,Cowiche,WA,Fireball,REDACTED,46.6698469,-120.7122934
16-09-26-00-00,USA,Palm Beach Garden,FL,Light,REDACTED,26.84176195,-80.13530871
16-09-26-23-59,USA,Orange Park,FL,Triangle,REDACTED,30.1660736,-81.7064839
16-09-26-23-40,USA,Buffalo,NY,Unknown,REDACTED,42.8867166,-78.8783921
16-09-26-23-26,USA,Providence,RI,Unknown,REDACTED,41.8239891,-71.4128342
16-09-26-21-50,USA,Dallas,TX,Light,REDACTED,32.7762719,-96.7968558
16-09-26-21-20,USA,Savannah,GA,Fireball,REDACTED,32.0835407,-81.0998341
16-09-26-20-00,USA,Napoleonville,LA,Triangle,REDACTED,29.9404803,-91.0248213
16-09-26-19-35,USA,Goleta,CA,Other,REDACTED,34.4358295,-119.8276388
16-09-26-17-40,USA,Walkertown,NC,Rectangle,REDACTED,35.6534497,-82.3390097
16-09-26-16-00,USA,Apple Valley,UT,Changing,REDACTED,37.0897057,-113.1243875
16-09-26-15-30,USA,Oakdale,CA,Other,REDACTED,37.7665947,-120.8471544
16-09-26-14-00,USA,Rothschild,WI,Triangle,REDACTED,44.8871907,-89.6201217
16-09-26-12-30,USA,Antioch,CA,Teardrop,REDACTED,38.0049214,-121.8057889
16-09-26-11-35,USA,Sacramento,CA,Oval,REDACTED,38.5815719,-121.4943995
16-09-26-07-30,USA,Hollywood,FL,Circle,REDACTED,26.0112014,-80.14949
16-09-26-05-20,USA,Coachella,CA,Circle,REDACTED,33.6795519,-116.1763379
16-09-26-05-00,USA,Long Beach,CA,Light,REDACTED,33.78538945,-118.1580492
16-09-26-04-08,USA,Aurora,CO,Cigar,REDACTED,43.6963371,-98.572246
16-09-26-03-00,USA,Port Orchard,WA,Triangle,REDACTED,47.5315625,-122.6384055
16-09-25-00-00,USA,Bellingham,WA,Circle,REDACTED,48.754402,-122.4788601
16-09-25-23-46,USA,El Mirage,AZ,Circle,REDACTED,33.6130338,-112.3244865
16-09-25-23-00,USA,Naugatuck,CT,Light,REDACTED,41.4860186,-73.0509431
16-09-25-22-15,USA,San Jose,CA,Rectangle,REDACTED,37.3361905,-121.8905832
16-09-25-21-30,USA,Reston,VA,Circle,REDACTED,38.9584018,-77.3579742
16-09-25-21-30,USA,Sacramento,CA,Light,REDACTED,38.5815719,-121.4943995
16-09-25-20-30,USA,Wetumpka,AL,Light,REDACTED,32.5437448,-86.2119126
16-09-25-20-19,USA,Northglenn,CO,Triangle,REDACTED,39.885541,-104.9872025
16-09-25-20-15,USA,Eugene,OR,Triangle,REDACTED,44.10118085,-123.1523837
16-09-25-20-00,USA,Bellingham,WA,Circle,REDACTED,48.754402,-122.4788601
16-09-25-19-47,USA,Roseville,CA,Formation,REDACTED,38.72338,-121.1858782
16-09-25-19-45,USA,Rocklin,CA,Unknown,REDACTED,38.7907339,-121.2357827
16-09-25-19-30,USA,Rocklin,CA,Unknown,REDACTED,38.7907339,-121.2357827
16-09-25-17-15,USA,Cranford,NJ,Sphere,REDACTED,40.6584358,-74.2995922
16-09-25-15-49,USA,Wilmington,DE,Circle,REDACTED,39.745947,-75.5465889
16-09-25-14-00,USA,East Brunswick,NJ,Oval,REDACTED,40.4278841,-74.4159839
16-09-25-12-30,USA,Pittsburgh,PA,Chevron,REDACTED,40.4416941,-79.990086
16-09-25-12-00,USA,Brandywine,MD,Triangle,REDACTED,38.696783,-76.8477489
16-09-25-01-00,USA,Kansas City,MO,Unknown,REDACTED,39.0844687,-94.5630297
16-09-25-00-09,USA,Dayton,TX,Triangle,REDACTED,30.0466051,-94.8852025
16-09-24-23-50,USA,Montville,OH,Flash,REDACTED,41.6072757,-81.0503741
16-09-24-23-30,USA,Stering Heights,MI,Formation,REDACTED,35.1878231,-80.8082558
16-09-24-23-20,USA,White Plains,NY,Circle,REDACTED,41.0339862,-73.7629096
16-09-24-23-00,USA,Fenton,MI,Triangle,REDACTED,38.5132838,-90.4401793
16-09-24-22-45,USA,Cincinnati,OH,Oval,REDACTED,39.1014537,-84.5124601
16-09-24-22-15,USA,Long Beach,CA,Formation,REDACTED,33.78538945,-118.1580492
16-09-24-22-00,USA,Akron,OH,Formation,REDACTED,41.0830643,-81.5184853
16-09-24-22-00,USA,Rutland,MA,Circle,REDACTED,42.3695356,-71.9481301
16-09-24-21-30,USA,Niagara Falls,NY,Fireball,REDACTED,43.1131874,-79.0314255
16-09-24-21-30,USA,Hamilton,NJ,Formation,REDACTED,40.2070573,-74.0812505
16-09-24-21-28,USA,Denver,CO,Triangle,REDACTED,39.7348381,-104.965327
16-09-24-21-17,USA,Cumberland Center,ME,Other,REDACTED,43.7964679,-70.2589387
16-09-24-21-00,USA,Macungie,PA,Light,REDACTED,40.5159304,-75.5551857
16-09-24-21-00,USA,Lancaster,PA,Circle,REDACTED,40.03813,-76.3056685
16-09-24-20-45,USA,New Holland,OH,Unknown,REDACTED,39.5539511,-83.2568581
16-09-24-20-45,USA,Garden City,SC,Other,REDACTED,33.5863905,-79.0120627
16-09-24-20-45,USA,Tigard,OR,Light,REDACTED,45.4307473,-122.7719338
16-09-24-20-15,USA,Buffalo,NY,Light,REDACTED,42.8867166,-78.8783921
16-09-24-20-05,USA,Fairmont,WV,Circle,REDACTED,39.4850848,-80.142578
16-09-24-19-39,USA,Redding,CA,Rectangle,REDACTED,40.5863563,-122.3916753
16-09-24-19-30,USA,Philadelphia,PA,Light,REDACTED,39.9523993,-75.1635898
16-09-24-19-30,USA,Oakland,CA,Triangle,REDACTED,37.8044557,-122.2713562
16-09-24-18-15,USA,South Burlington,VT,Oval,REDACTED,44.4669941,-73.1709603
16-09-24-17-55,CANADA,Toronto,ON,Oval,REDACTED,43.6529206,-79.3849007
16-09-24-08-00,USA,Fountain Valley,CA,Triangle,REDACTED,33.7038145,-117.9627348
16-09-24-07-30,USA,Lacey,WA,Unknown,REDACTED,47.0263876,-122.8072256
16-09-24-07-30,USA,Silverlake,CA,Cigar,REDACTED,35.388951,-119.0963359
16-09-24-04-00,USA,Alice,TX,Light,REDACTED,27.7522487,-98.0697248
16-09-24-03-13,USA,Downey,CA,Egg,REDACTED,33.937672,-118.1654425
16-09-24-03-00,USA,Siracusa,NY,Light,REDACTED,40.849158,-73.2585629
16-09-24-01-00,USA,Melbourne Beach,FL,Other,REDACTED,28.0683496,-80.5603302
16-09-24-00-00,USA,Cleveland,OH,Fireball,REDACTED,41.5051613,-81.6934445
16-09-23-22-00,USA,Sarasota,FL,Changing,REDACTED,27.3364347,-82.5306526
16-09-23-22-00,USA,Lilburn,GA,Fireball,REDACTED,33.8901036,-84.1429718
16-09-23-22-00,USA,Indianapolis,IN,Light,REDACTED,39.7683331,-86.1583501
16-09-23-21-40,USA,Springfield,VA,Circle,REDACTED,38.7890522,-77.1870367
16-09-23-20-45,USA,Bradenton,FL,Triangle,REDACTED,27.4724175,-82.563375
16-09-23-20-32,USA,Virginia Beach,VA,Cigar,REDACTED,36.8529841,-75.9774182
16-09-23-20-19,USA,Lansing,MI,Light,REDACTED,42.7337712,-84.5553804
16-09-23-19-30,USA,Longmont,CO,Light,REDACTED,40.1672117,-105.1019286
16-09-23-17-30,USA,Las Vegas,NV,Oval,REDACTED,36.1662859,-115.1492249
16-09-22-22-00,USA,Santa Monica,CA,Formation,REDACTED,34.019657,-118.4875489
16-09-22-21-30,USA,Austell,GA,Light,REDACTED,33.8126059,-84.6343782
16-09-22-21-30,USA,Glenside,PA,Triangle,REDACTED,40.103196,-75.15155335
16-09-22-21-10,USA,Morristown,TN,Other,REDACTED,36.2139814,-83.2948922
16-09-22-20-45,USA,Portland,OR,Sphere,REDACTED,45.5202471,-122.6741948
16-09-22-20-30,USA,Temecula,CA,Triangle,REDACTED,33.4946353,-117.147366
16-09-22-19-40,USA,Boston,MA,Light,REDACTED,42.3604823,-71.0595677
16-09-22-19-00,USA,Woonsocket,RI,Circle,REDACTED,42.0028761,-71.5147838
16-09-22-12-15,USA,Cincinnati,OH,Fireball,REDACTED,39.1014537,-84.5124601
16-09-22-08-45,CANADA,Niagara Falls,ON,Formation,REDACTED,43.1089442,-79.0636192
16-09-22-05-50,USA,Athens,GA,Light,REDACTED,33.94385375,-83.39728979
16-09-22-04-47,USA,Livingston,NJ,Unknown,REDACTED,40.7959335,-74.3148712
16-09-22-04-15,USA,Petersburg,VA,Unknown,REDACTED,37.1924594,-77.3677407
16-09-22-02-02,USA,Columbia,SC,Unknown,REDACTED,34.0007493,-81.0343312
16-09-21-23-37,USA,Oak Ridge,TN,Circle,REDACTED,36.0103562,-84.2696448
16-09-21-22-14,USA,Mebane,NC,Unknown,REDACTED,36.095972,-79.2669619
16-09-21-22-00,USA,Quincy,MA,Oval,REDACTED,42.2528772,-71.0022704
16-09-21-21-50,USA,Wilmington,MA,Circle,REDACTED,42.5464828,-71.1736668
16-09-21-21-45,USA,Lowell,MA,Fireball,REDACTED,42.6334247,-71.3161717
16-09-21-21-42,USA,Nashua,NH,Fireball,REDACTED,42.7653662,-71.4675659
16-09-21-21-30,USA,North Brookfield,MA,Oval,REDACTED,42.2667587,-72.0828544
16-09-21-20-30,USA,Cicero,NY,Light,REDACTED,43.1756235,-76.1193677
16-09-21-20-15,USA,Cicero,NY,Cross,REDACTED,43.1756235,-76.1193677
16-09-21-20-07,USA,Cicero,NY,Formation,REDACTED,43.1756235,-76.1193677
16-09-21-20-05,USA,North Bend,WA,Flash,REDACTED,47.4938343,-121.786249
16-09-21-19-50,USA,Austin,TX,Unknown,REDACTED,30.2711286,-97.7436994
16-09-21-19-40,USA,Nashville,TN,Diamond,REDACTED,36.1622296,-86.774353
16-09-21-18-00,USA,Beaverton,OR,Circle,REDACTED,45.4871723,-122.8037803
16-09-21-17-00,USA,Pellville,KY,Diamond,REDACTED,37.7522749,-86.8136004
16-09-21-08-20,USA,Buford,GA,Light,REDACTED,34.1206564,-84.0043512
16-09-21-05-16,USA,Newport Beach,CA,Fireball,REDACTED,33.6170092,-117.92944
16-09-21-05-16,USA,Newport Beach,CA,Fireball,REDACTED,33.6170092,-117.92944
16-09-21-04-23,USA,Shelbyville,IN,Triangle,REDACTED,39.5214373,-85.7769237
16-09-21-02-35,USA,Tea,SD,Fireball,REDACTED,43.44661,-96.8360339
16-09-20-22-13,USA,Springtown,TX,Oval,REDACTED,31.802096,-98.1897588
16-09-20-22-00,USA,Oak Lawn,IL,Light,REDACTED,41.7108662,-87.758108
16-09-20-21-04,USA,Louisville,KY,Sphere,REDACTED,38.2542376,-85.7594069
16-09-20-21-00,USA,Salt Lake City,UT,Triangle,REDACTED,40.7670126,-111.8904307
16-09-20-21-00,USA,Claremont,CA,Unknown,REDACTED,34.0966764,-117.7197784
16-09-20-21-00,USA,Elmore County,ID,Light,REDACTED,43.3073766,-115.5411026
16-09-20-21-00,USA,Brooklyn,NY,Light,REDACTED,40.64530975,-73.95502293
16-09-20-20-45,USA,Salt Lake City,UT,Formation,REDACTED,40.7670126,-111.8904307
16-09-20-20-35,USA,Freeland,PA,Light,REDACTED,41.0167508,-75.897143
16-09-20-20-15,USA,Harrisburg,PA,Other,REDACTED,40.2663107,-76.8861121
16-09-20-20-00,USA,Assumption,MI,Light,REDACTED,29.9185432,-91.0533995
16-09-20-20-00,USA,Amherst,NY,Sphere,REDACTED,42.9783924,-78.7997615
16-09-20-19-45,USA,Charleroi,PA,Cylinder,REDACTED,40.1378499,-79.8981034
16-09-20-19-09,CANADA,Burnaby,BC,Circle,REDACTED,49.2445,-122.9727169
16-09-20-18-00,USA,St. Augustine,FL,Chevron,REDACTED,29.8946952,-81.3145394
16-09-20-16-34,CANADA,Oakville,ON,Sphere,REDACTED,43.447436,-79.6666719
16-09-20-13-00,USA,Conway,AR,Sphere,REDACTED,35.0886963,-92.442101
16-09-20-10-50,USA,Laurel,MD,Chevron,REDACTED,39.0992752,-76.848306
16-09-20-10-00,USA,Thomson,GA,Disk,REDACTED,33.4707348,-82.5045955
16-09-20-06-10,USA,Columbus,OH,Chevron,REDACTED,39.9622601,-83.0007064
16-09-20-05-15,USA,Bradenton,FL,Other,REDACTED,27.4724175,-82.563375
16-09-20-05-00,USA,Siracusa,NY,Light,REDACTED,40.849158,-73.2585629
16-09-20-04-00,USA,Brookfield,IL,Disk,REDACTED,41.8228378,-87.8480849
16-09-20-01-00,USA,Gila,NM,Oval,REDACTED,32.9659028,-108.5767196
16-09-19-22-00,USA,Baraboo,WI,Flash,REDACTED,43.4704014,-89.7437843
16-09-19-22-00,USA,Saucier,MS,Light,REDACTED,30.625503,-89.14462969
16-09-19-22-00,USA,Oswego,IL,Light,REDACTED,41.6828074,-88.3514595
16-09-19-22-00,USA,Aumsville,OR,Cross,REDACTED,44.8409548,-122.8709242
16-09-19-21-30,USA,Loveland,CO,Chevron,REDACTED,40.385549,-105.0443612
16-09-19-21-15,USA,Charlotte,NC,Unknown,REDACTED,35.2270869,-80.8431267
16-09-19-21-00,USA,Crandon,WI,Other,REDACTED,45.571907,-88.9028919
16-09-19-20-47,USA,Jasper,GA,Circle,REDACTED,33.3254635,-83.6868558
16-09-19-20-05,USA,Pittsfield,MA,Fireball,REDACTED,42.4500967,-73.2453784
16-09-19-18-22,USA,Cloverdale,NM,Disk,REDACTED,31.4170488,-108.9297734
16-09-19-17-50,USA,Powell,TN,Triangle,REDACTED,36.0317472,-84.0279676
16-09-19-08-30,USA,Perris,CA,Disk,REDACTED,33.7825194,-117.2286477
16-09-19-03-32,USA,San Diego,CA,Triangle,REDACTED,32.7174209,-117.1627713
16-09-18-23-00,USA,Las Vegas,NV,Oval,REDACTED,36.1662859,-115.1492249
16-09-18-22-00,USA,Danforth,IL,Unknown,REDACTED,40.820312,-87.9778179
16-09-18-21-00,CANADA,Ingersoll,ON,Formation,REDACTED,43.037725,-80.8821099
16-09-18-21-00,USA,Grand Rapids,MI,Light,REDACTED,42.9632405,-85.6678638
16-09-18-21-00,USA,Charleston,MO,Unknown,REDACTED,36.9208854,-89.3506309
16-09-18-20-52,USA,Fort Wayne,IN,Other,REDACTED,41.0799898,-85.1386014
16-09-18-20-48,USA,Morongo valley,CA,Unknown,REDACTED,34.0537585,-116.596724
16-09-18-20-45,USA,Oroville,CA,Light,REDACTED,39.5137752,-121.5563589
16-09-18-20-10,USA,Manitou Springs,CO,Oval,REDACTED,38.8585777,-104.917873
16-09-18-19-21,USA,Yukon,OK,Light,REDACTED,35.5067259,-97.7625385
16-09-18-19-00,USA,Aurora,CO,Other,REDACTED,43.6963371,-98.572246
16-09-18-15-30,USA,Bridgewater,NJ,Rectangle,REDACTED,40.5599163,-74.5516572
16-09-18-14-34,USA,Fairbanks,AK,Circle,REDACTED,64.837845,-147.7166749
16-09-18-10-00,USA,Bensalem,PA,Circle,REDACTED,40.1045549,-74.9512789
16-09-18-08-00,USA,Tulsa,OK,Triangle,REDACTED,36.1556805,-95.9929112
16-09-18-05-30,USA,Hopedale,MA,Circle,REDACTED,42.1306522,-71.5411746
16-09-17-23-30,USA,Stamford,CT,Oval,REDACTED,32.373972,-86.1613859
16-09-17-23-15,USA,Miami,FL,Fireball,REDACTED,25.800431,-80.2632189
16-09-17-22-36,USA,Colton,NY,Fireball,REDACTED,44.553292,-74.9398039
16-09-17-21-00,USA,Danville,IN,Triangle,REDACTED,40.125222,-87.6304613
16-09-17-20-33,USA,Summerlin,NV,Changing,REDACTED,36.1913172,-115.3018605
16-09-17-20-00,USA,Preston,MD,Light,REDACTED,38.7126151,-75.909936
16-09-17-19-36,USA,Los Alamos,NM,Circle,REDACTED,35.8892969,-106.3206589
16-09-17-19-35,USA,Albuquerque,NM,Light,REDACTED,35.0841034,-106.650985
16-09-17-19-30,USA,Durango,CO,Sphere,REDACTED,37.2753739,-107.8799421
16-09-17-19-00,USA,Ridgway,CO,Triangle,REDACTED,38.1527685,-107.7617262
16-09-17-19-00,USA,Lahaina,HI,Light,REDACTED,20.872684,-156.6762728
16-09-17-10-00,USA,Layton,UT,Triangle,REDACTED,41.0602888,-111.9661494
16-09-17-09-45,USA,Oklahoma City,OK,Changing,REDACTED,35.4729886,-97.5170535
16-09-17-08-45,USA,Orem,UT,Chevron,REDACTED,40.2975185,-111.6944684
16-09-17-00-00,USA,Athens,AL,Oval,REDACTED,34.8283825,-86.91713365
16-09-16-23-33,USA,Pittsburg,CA,Light,REDACTED,38.0181745,-121.8901231
16-09-16-22-30,USA,Aurora,IN,Light,REDACTED,41.7605849,-88.3200714
16-09-16-21-45,CANADA,Bowmanville,ON,Circle,REDACTED,43.910755,-78.6803049
16-09-16-21-40,USA,Cumberland,MD,Light,REDACTED,39.6528509,-78.7624713
16-09-16-21-25,USA,Lewis center,OH,Sphere,REDACTED,40.1983958,-83.0101842
16-09-16-21-06,USA,Long Beach,CA,Other,REDACTED,33.78538945,-118.1580492
16-09-16-21-00,USA,Richlands,NC,Changing,REDACTED,36.0864996,-82.3142993
16-09-16-21-00,USA,Frisco,TX,Flash,REDACTED,33.1506744,-96.8236115
16-09-16-21-00,USA,Grayling,MI,Unknown,REDACTED,44.661517,-84.7146369
16-09-16-21-00,USA,Sylmar,CA,Triangle,REDACTED,34.3076252,-118.4492147
16-09-16-20-45,USA,Waterville,ME,Light,REDACTED,44.5520105,-69.631712
16-09-16-20-40,USA,Medford,MA,Light,REDACTED,42.4184296,-71.1061638
16-09-16-20-30,USA,Ritzville,WA,Unknown,REDACTED,47.1273723,-118.379975
16-09-16-20-30,USA,Huntington Beach,CA,Chevron,REDACTED,33.6783336,-118.0000165
16-09-16-20-00,USA,Bangor,ME,Triangle,REDACTED,44.8011821,-68.7778137
16-09-16-20-00,USA,Baldwinsville,NY,Light,REDACTED,43.158679,-76.3327099
16-09-16-19-50,USA,Citrus Heights,CA,Oval,REDACTED,38.7071247,-121.281061
16-09-16-18-40,USA,Minot,ME,Other,REDACTED,44.086105,-70.3207399
16-09-16-14-45,USA,Redding,CA,Cigar,REDACTED,40.5863563,-122.3916753
16-09-16-12-43,USA,Charleston,SC,Triangle,REDACTED,32.7876012,-79.9402727
16-09-16-10-15,USA,Marina Del Rey,CA,Light,REDACTED,36.9225615,-121.8517848
16-09-16-04-30,USA,Belmont,NC,Other,REDACTED,35.2429175,-81.0372969
16-09-16-02-30,USA,Nevada,MO,Unknown,REDACTED,37.8389595,-94.3549186
16-09-15-23-20,USA,Benson,AZ,Rectangle,REDACTED,31.9678731,-110.2945759
16-09-15-22-53,USA,Stoughton,MA,Circle,REDACTED,42.1250995,-71.1022711
16-09-15-22-15,USA,Missoula,MT,Light,REDACTED,46.8700801,-113.9952795
16-09-15-22-05,USA,Canby,OR,Light,REDACTED,45.2629088,-122.6925982
16-09-15-22-00,USA,Mountain Home,ID,Light,REDACTED,43.1329504,-115.6911974
16-09-15-21-55,USA,Hyannis,MA,Sphere,REDACTED,41.6528995,-70.28281
16-09-15-21-45,USA,Bigfork,MT,Fireball,REDACTED,48.0632865,-114.0726133
16-09-15-21-30,USA,Bear,DE,Sphere,REDACTED,39.6292788,-75.6582627
16-09-15-21-30,USA,Wyoming,MI,Unknown,REDACTED,42.9132581,-85.7057034
16-09-15-21-20,CANADA,Sundre,AB,Light,REDACTED,51.7970889,-114.6393203
16-09-15-21-15,USA,Whitefish,MT,Light,REDACTED,48.4107966,-114.3346264
16-09-15-21-00,USA,Seagrove,FL,Fireball,REDACTED,30.3180152,-86.1312568
16-09-15-21-00,USA,Lakehills,TX,Sphere,REDACTED,29.584395,-98.9489192
16-09-15-20-47,USA,Warren,MI,Light,REDACTED,42.4775364,-83.0277
16-09-15-20-30,USA,Menifee,CA,Fireball,REDACTED,33.6864432,-117.1770436
16-09-15-20-25,USA,Spokane Valley,WA,Light,REDACTED,47.6691967,-117.1966686
16-09-15-19-45,USA,Baltimore,MD,Fireball,REDACTED,39.2908816,-76.6107589
16-09-15-19-30,USA,Farmington,ME,Other,REDACTED,44.6706157,-70.1511728
16-09-15-19-00,USA,Smithville,NJ,Triangle,REDACTED,39.4940064,-74.4570946
16-09-15-19-00,USA,Warminster,PA,Light,REDACTED,40.1950775,-75.0889314
16-09-15-18-45,USA,Hingham,MA,Disk,REDACTED,42.2417669,-70.8897675
16-09-15-18-00,USA,Augusta,GA,Light,REDACTED,33.4709714,-81.9748428
16-09-15-17-15,USA,Gladwin,MI,Sphere,REDACTED,43.9747774,-84.3873234
16-09-15-14-30,USA,Prince William,VA,Disk,REDACTED,38.7389846,-77.5536742
16-09-15-14-00,CANADA,Hamilton,ON,Light,REDACTED,43.255205,-79.8682019
16-09-15-07-30,USA,Knoxville,TN,Light,REDACTED,35.9603948,-83.921026
16-09-15-04-00,USA,Ontario,CA,Other,REDACTED,34.065846,-117.6484303
16-09-15-02-35,USA,Miami,FL,Circle,REDACTED,25.800431,-80.2632189
16-09-15-00-00,USA,San Leandro,CA,Other,REDACTED,37.7249296,-122.1560767
16-09-14-22-37,USA,Highland,MI,Other,REDACTED,39.1802516,-83.6304343
16-09-14-22-30,USA,Bradenton,FL,Circle,REDACTED,27.4724175,-82.563375
16-09-14-21-30,USA,False Cape State Park,VA,Light,REDACTED,36.5876538,-75.8840898
